[{"slug": "tent-city-cabins-high-adventure-staff", "campground_name": "'Tent City' Cabins - High Adventure Staff", "state": "MI", "campground_type": "Campground", "is_verified": false, "signal_score": 40, "carrier_count": 1, "remote_work_score": 57.1, "latitude": 43.436928, "longitude": -86.2328863}, {"slug": "064-baker-branch", "campground_name": "064 Baker Branch", "state": "PA", "campground_type": "Campground", "is_verified": false, "signal_score": 40, "carrier_count": 1, "remote_work_score": 46.1, "latitude": 41.7965876, "longitude": -77.47966}, {"slug": "1994-osr-trail-site", "campground_name": "1994 OSR Trail Site", "state": "MI", "campground_type": "Private", "is_verified": false, "signal_score": 40, "carrier_count": 1, "remote_work_score": 57.1, "latitude": 43.4055238, "longitude": -86.2261339}, {"slug": "1994-osr-trail-site-mi", "campground_name": "1994 OSR Trail Site", "state": "MI", "campground_type": "Private", "is_verified": false, "signal_score": 40, "carrier_count": 1, "remote_work_score": 57.1, "latitude": 43.4041294, "longitude": -86.1894385}, {"slug": "1994-osr-trail-site-mi-2", "campground_name": "1994 OSR Trail Site", "state": "MI", "campground_type": "Private", "is_verified": false, "signal_score": 70, "carrier_count": 2, "remote_work_score": 77.9, "latitude": 43.4174157, "longitude": -86.144237}, {"slug": "1994-osr-trail-site-mi-3", "campground_name": "1994 OSR Trail Site", "state": "MI", "campground_type": "Private", "is_verified": false, "signal_score": 90, "carrier_count": 3, "remote_work_score": 93.5, "latitude": 43.4065122, "longitude": -86.1448738}, {"slug": "1994-osr-trail-site-mi-4", "campground_name": "1994 OSR Trail Site", "state": "MI", "campground_type": "Private", "is_verified": false, "signal_score": 90, "carrier_count": 3, "remote_work_score": 93.5, "latitude": 43.408385, "longitude": -86.1440519}, {"slug": "1994-osr-trail-site-mi-5", "campground_name": "1994 OSR Trail Site", "state": "MI", "campground_type": "Private", "is_verified": false, "signal_score": 70, "carrier_count": 2, "remote_work_score": 77.9, "latitude": 43.4333861, "longitude": -86.1562441}, {"slug": "1994-osr-trail-site-mi-6", "campground_name": "1994 OSR Trail Site", "state": "MI", "campground_type": "Private", "is_verified": false, "signal_score": 90, "carrier_count": 3, "remote_work_score": 93.5, "latitude": 43.4639786, "longitude": -86.1125928}, {"slug": "1994-osr-trail-site-mi-7", "campground_name": "1994 OSR Trail Site", "state": "MI", "campground_type": "Private", "is_verified": false, "signal_score": 40, "carrier_count": 1, "remote_work_score": 54.6, "latitude": 43.4842134, "longitude": -86.1415251}, {"slug": "1994-osr-trail-site-mi-8", "campground_name": "1994 OSR Trail Site", "state": "MI", "campground_type": "Campground", "is_verified": false, "signal_score": 40, "carrier_count": 1, "remote_work_score": 54.6, "latitude": 43.4815053, "longitude": -86.1745894}, {"slug": "1994-osr-trail-site-mi-9", "campground_name": "1994 OSR Trail Site", "state": "MI", "campground_type": "Campground", "is_verified": false, "signal_score": 40, "carrier_count": 1, "remote_work_score": 57.1, "latitude": 43.481236, "longitude": -86.2480235}, {"slug": "1994-osr-trail-site-mi-10", "campground_name": "1994 OSR Trail Site", "state": "MI", "campground_type": "Campground", "is_verified": false, "signal_score": 10, "carrier_count": 0, "remote_work_score": 33.8, "latitude": 43.4901525, "longitude": -86.2566303}, {"slug": "1994-osr-trail-site-camp-splinter", "campground_name": "1994 OSR Trail Site - Camp Splinter", "state": "MI", "campground_type": "Campground", "is_verified": false, "signal_score": 40, "carrier_count": 1, "remote_work_score": 54.6, "latitude": 43.4851123, "longitude": -86.1810738}, {"slug": "1994-osr-trail-site-deserters-cave", "campground_name": "1994 OSR Trail Site - Deserters Cave", "state": "MI", "campground_type": "Private", "is_verified": false, "signal_score": 70, "carrier_count": 2, "remote_work_score": 77.9, "latitude": 43.4807594, "longitude": -86.1300551}, {"slug": "1994-osr-trail-site-high-banks", "campground_name": "1994 OSR Trail Site - High Banks", "state": "MI", "campground_type": "Campground", "is_verified": false, "signal_score": 40, "carrier_count": 1, "remote_work_score": 57.1, "latitude": 43.4833521, "longitude": -86.2908619}, {"slug": "1994-osr-trail-site-lake-lebarge", "campground_name": "1994 OSR Trail Site - Lake Lebarge", "state": "MI", "campground_type": "Private", "is_verified": false, "signal_score": 40, "carrier_count": 1, "remote_work_score": 54.6, "latitude": 43.4628737, "longitude": -86.1468779}, {"slug": "1994-osr-trail-site-lloyd-island", "campground_name": "1994 OSR Trail Site - Lloyd Island", "state": "MI", "campground_type": "Campground", "is_verified": false, "signal_score": 40, "carrier_count": 1, "remote_work_score": 54.6, "latitude": 43.4812939, "longitude": -86.1849904}, {"slug": "1994-osr-trail-site-oil-well", "campground_name": "1994 OSR Trail Site - Oil Well", "state": "MI", "campground_type": "Campground", "is_verified": false, "signal_score": 10, "carrier_count": 0, "remote_work_score": 31.3, "latitude": 43.4774542, "longitude": -86.1948597}, {"slug": "1994-osr-trail-site-poison-springs", "campground_name": "1994 OSR Trail Site - Poison Springs", "state": "MI", "campground_type": "Campground", "is_verified": false, "signal_score": 10, "carrier_count": 0, "remote_work_score": 31.3, "latitude": 43.4814073, "longitude": -86.2029772}, {"slug": "23e-host-site", "campground_name": "23E Host Site", "state": "WI", "campground_type": "Campground", "is_verified": false, "signal_score": 10, "carrier_count": 0, "remote_work_score": 22.8, "latitude": 42.7410812, "longitude": -91.0271219}, {"slug": "4-seasons-campground", "campground_name": "4 Seasons Campground", "state": "MI", "campground_type": "Campground", "is_verified": false, "signal_score": 10, "carrier_count": 0, "remote_work_score": 31.3, "latitude": 44.0585213, "longitude": -85.7185563}, {"slug": "4-h-camp-clifton", "campground_name": "4-H Camp Clifton", "state": "OH", "campground_type": "Private", "is_verified": false, "signal_score": 90, "carrier_count": 3, "remote_work_score": 97.5, "latitude": 39.78876, "longitude": -83.841707}, {"slug": "4-h-camp-palmer", "campground_name": "4-H Camp Palmer", "state": "OH", "campground_type": "Campground", "is_verified": false, "signal_score": 90, "carrier_count": 3, "remote_work_score": 96.0, "latitude": 41.6460875, "longitude": -84.3706954}, {"slug": "4-mile-trail-camp", "campground_name": "4-Mile Trail Camp", "state": "MI", "campground_type": "Campground", "is_verified": false, "signal_score": 90, "carrier_count": 3, "remote_work_score": 90.0, "latitude": 44.5977711, "longitude": -84.6217398}, {"slug": "45th-parallel-back-country-campground", "campground_name": "45th Parallel Back Country Campground", "state": "MI", "campground_type": "Campground", "is_verified": false, "signal_score": 90, "carrier_count": 3, "remote_work_score": 87.5, "latitude": 44.9773541, "longitude": -84.957093}, {"slug": "a-mi", "campground_name": "A", "state": "MI", "campground_type": "Campground", "is_verified": false, "signal_score": 10, "carrier_count": 0, "remote_work_score": 20.3, "latitude": 45.4074452, "longitude": -86.8140947}, {"slug": "abc-country-camping-and-cabins", "campground_name": "ABC Country Camping and Cabins", "state": "OH", "campground_type": "Campground", "is_verified": false, "signal_score": 40, "carrier_count": 1, "remote_work_score": 54.6, "latitude": 40.6016677, "longitude": -81.1753029}, {"slug": "ada-lake-campground", "campground_name": "Ada Lake Campground", "state": "WI", "campground_type": "National Forest", "is_verified": true, "signal_score": 40, "carrier_count": 1, "remote_work_score": 38.6, "latitude": 45.3694115, "longitude": -88.7317749}, {"slug": "adams-county-castle-rock", "campground_name": "Adams County Castle Rock", "state": "WI", "campground_type": "County Park", "is_verified": false, "signal_score": 10, "carrier_count": 0, "remote_work_score": 25.3, "latitude": 43.9096188, "longitude": -89.9397216}, {"slug": "adventure-bound-camping-resort-oak-creek", "campground_name": "Adventure Bound Camping Resort Oak Creek", "state": "PA", "campground_type": "Private", "is_verified": false, "signal_score": 90, "carrier_count": 3, "remote_work_score": 100, "latitude": 40.1996265, "longitude": -75.9856995}, {"slug": "adventure-bound-camping-resorts-shenango-valley", "campground_name": "Adventure Bound Camping Resorts - Shenango Valley", "state": "PA", "campground_type": "Private", "is_verified": false, "signal_score": 90, "carrier_count": 3, "remote_work_score": 97.5, "latitude": 41.3357474, "longitude": -80.3757085}, {"slug": "adventure-bound-eagles-peak-campground", "campground_name": "Adventure Bound Eagles Peak Campground", "state": "PA", "campground_type": "Campground", "is_verified": false, "signal_score": 90, "carrier_count": 3, "remote_work_score": 93.5, "latitude": 40.3329268, "longitude": -76.1796526}, {"slug": "ahmeek-coppermine-camp", "campground_name": "Ahmeek Coppermine Camp", "state": "MI", "campground_type": "Campground", "is_verified": false, "signal_score": 90, "carrier_count": 3, "remote_work_score": 76.0, "latitude": 47.3019271, "longitude": -88.3750318}, {"slug": "aikens-cabins-at-bear-meadows", "campground_name": "Aikens Cabins at Bear Meadows", "state": "PA", "campground_type": "Campground", "is_verified": false, "signal_score": 90, "carrier_count": 3, "remote_work_score": 100, "latitude": 40.7682282, "longitude": -77.7572973}, {"slug": "akela-s-world", "campground_name": "Akela\u2019s World", "state": "WI", "campground_type": "Campground", "is_verified": false, "signal_score": 40, "carrier_count": 1, "remote_work_score": 41.1, "latitude": 45.7160619, "longitude": -89.4205975}, {"slug": "alcona-canoe-rental-campground", "campground_name": "Alcona Canoe Rental & Campground", "state": "MI", "campground_type": "Campground", "is_verified": false, "signal_score": 70, "carrier_count": 2, "remote_work_score": 66.9, "latitude": 44.5627497, "longitude": -83.780558}, {"slug": "alder", "campground_name": "Alder", "state": "WI", "campground_type": "Campground", "is_verified": false, "signal_score": 40, "carrier_count": 1, "remote_work_score": 58.6, "latitude": 42.5048704, "longitude": -88.168392}, {"slug": "alder-canoe-1", "campground_name": "Alder Canoe 1", "state": "WI", "campground_type": "State Park", "is_verified": true, "signal_score": 90, "carrier_count": 3, "remote_work_score": 77.5, "latitude": 46.0933759, "longitude": -89.822854}, {"slug": "algonac-modern-wagon-wheel-campground", "campground_name": "Algonac State Park", "state": "MI", "campground_type": "State Park", "is_verified": true, "signal_score": 90, "carrier_count": 3, "remote_work_score": 93.5, "latitude": 42.6565211, "longitude": -82.5231797}, {"slug": "algonac-modern-riverfront-campground", "campground_name": "Algonac State Park - Riverfront Campground", "state": "MI", "campground_type": "State Park", "is_verified": true, "signal_score": 90, "carrier_count": 3, "remote_work_score": 93.5, "latitude": 42.6530626, "longitude": -82.5156726}, {"slug": "all-saints-camp", "campground_name": "All Saints Camp", "state": "PA", "campground_type": "Campground", "is_verified": false, "signal_score": 70, "carrier_count": 2, "remote_work_score": 74.4, "latitude": 41.2276551, "longitude": -79.7269694}, {"slug": "allegheny-river-campground", "campground_name": "Allegheny River Campground", "state": "PA", "campground_type": "Campground", "is_verified": false, "signal_score": 90, "carrier_count": 3, "remote_work_score": 85.0, "latitude": 41.7609209, "longitude": -78.1170798}, {"slug": "alleghenyn-i-80-campground", "campground_name": "Alleghenyn I-80 Campground", "state": "PA", "campground_type": "Campground", "is_verified": false, "signal_score": 70, "carrier_count": 2, "remote_work_score": 80.4, "latitude": 41.1793976, "longitude": -79.7456722}, {"slug": "aloha-state-park-campground", "campground_name": "Aloha State Park Campground", "state": "MI", "campground_type": "State Park", "is_verified": false, "signal_score": 10, "carrier_count": 0, "remote_work_score": 20.3, "latitude": 45.5180998, "longitude": -84.4649798}, {"slug": "alosa-campsites-r2-r6", "campground_name": "Alosa Campsites R2-R6", "state": "PA", "campground_type": "Campground", "is_verified": false, "signal_score": 90, "carrier_count": 3, "remote_work_score": 87.5, "latitude": 41.0830991, "longitude": -74.9766514}, {"slug": "alpena-crtc-campground", "campground_name": "Alpena CRTC Campground", "state": "MI", "campground_type": "Private", "is_verified": false, "signal_score": 70, "carrier_count": 2, "remote_work_score": 76.9, "latitude": 45.0820404, "longitude": -83.5745275}, {"slug": "alum-creek-state-park", "campground_name": "Alum Creek State Park", "state": "OH", "campground_type": "State Park", "is_verified": true, "signal_score": 90, "carrier_count": 3, "remote_work_score": 100, "latitude": 40.19167, "longitude": -82.97306}, {"slug": "alum-creek-state-park-campground", "campground_name": "Alum Creek State Park Campground", "state": "OH", "campground_type": "State Park", "is_verified": true, "signal_score": 90, "carrier_count": 3, "remote_work_score": 100, "latitude": 40.2386717, "longitude": -82.9815849}, {"slug": "alverthorpe-park-campground", "campground_name": "Alverthorpe Park Campground", "state": "PA", "campground_type": "Campground", "is_verified": false, "signal_score": 40, "carrier_count": 1, "remote_work_score": 61.1, "latitude": 40.0894758, "longitude": -75.1154916}, {"slug": "ambrose-lake-state-forest-campground", "campground_name": "Ambrose Lake State Forest Campground", "state": "MI", "campground_type": "State Forest", "is_verified": true, "signal_score": 10, "carrier_count": 0, "remote_work_score": 20.3, "latitude": 44.4071931, "longitude": -84.2564149}, {"slug": "american-resort-and-campground", "campground_name": "American Resort and Campground", "state": "WI", "campground_type": "Private", "is_verified": false, "signal_score": 70, "carrier_count": 2, "remote_work_score": 80.4, "latitude": 43.6190271, "longitude": -89.7817446}, {"slug": "amigo-centre", "campground_name": "Amigo Centre", "state": "MI", "campground_type": "Campground", "is_verified": false, "signal_score": 90, "carrier_count": 3, "remote_work_score": 97.5, "latitude": 41.8654864, "longitude": -85.4401562}, {"slug": "amigo-park", "campground_name": "Amigo Park", "state": "MI", "campground_type": "Campground", "is_verified": false, "signal_score": 90, "carrier_count": 3, "remote_work_score": 97.5, "latitude": 41.8653192, "longitude": -85.4301022}, {"slug": "amnicon-falls-state-park-campground", "campground_name": "Amnicon Falls State Park", "state": "WI", "campground_type": "State Park", "is_verified": true, "signal_score": 40, "carrier_count": 1, "remote_work_score": 54.6, "latitude": 46.6089144, "longitude": -91.8926218}, {"slug": "andersen-preserve-dca", "campground_name": "Andersen Preserve DCA", "state": "WI", "campground_type": "Campground", "is_verified": false, "signal_score": 70, "carrier_count": 2, "remote_work_score": 81.9, "latitude": 43.1242839, "longitude": -89.6585372}, {"slug": "anderson-cabins-camping", "campground_name": "Anderson Cabins & Camping", "state": "WI", "campground_type": "Campground", "is_verified": false, "signal_score": 10, "carrier_count": 0, "remote_work_score": 28.8, "latitude": 43.8188524, "longitude": -89.0293984}, {"slug": "anderson-lake-west-state-forest-campground", "campground_name": "Anderson Lake West State Forest Campground", "state": "MI", "campground_type": "State Forest", "is_verified": true, "signal_score": 10, "carrier_count": 0, "remote_work_score": 24.8, "latitude": 46.2240501, "longitude": -87.493936}, {"slug": "andrus-lake-state-forest-campground", "campground_name": "Andrus Lake State Forest Campground", "state": "MI", "campground_type": "State Forest", "is_verified": true, "signal_score": 40, "carrier_count": 1, "remote_work_score": 43.6, "latitude": 46.7024552, "longitude": -85.0378627}, {"slug": "angel-cove-park", "campground_name": "Angel Cove Park", "state": "MI", "campground_type": "County Park", "is_verified": false, "signal_score": 90, "carrier_count": 3, "remote_work_score": 100, "latitude": 42.0080045, "longitude": -85.037693}, {"slug": "antiochian-village-camp", "campground_name": "Antiochian Village Camp", "state": "PA", "campground_type": "Campground", "is_verified": false, "signal_score": 70, "carrier_count": 2, "remote_work_score": 77.9, "latitude": 40.3029708, "longitude": -79.1500826}, {"slug": "anvil-lake-recreation-area", "campground_name": "Anvil Lake Recreation Area", "state": "WI", "campground_type": "Campground", "is_verified": false, "signal_score": 40, "carrier_count": 1, "remote_work_score": 38.6, "latitude": 45.9373667, "longitude": -89.0594608}, {"slug": "apache", "campground_name": "Apache", "state": "MI", "campground_type": "Campground", "is_verified": false, "signal_score": 40, "carrier_count": 1, "remote_work_score": 54.6, "latitude": 43.4438839, "longitude": -86.1903629}, {"slug": "apache-wi", "campground_name": "Apache", "state": "WI", "campground_type": "Campground", "is_verified": false, "signal_score": 10, "carrier_count": 0, "remote_work_score": 25.3, "latitude": 44.1524925, "longitude": -89.1493749}, {"slug": "apache-wi-2", "campground_name": "Apache", "state": "WI", "campground_type": "Campground", "is_verified": false, "signal_score": 10, "carrier_count": 0, "remote_work_score": 25.3, "latitude": 43.9008589, "longitude": -89.989505}, {"slug": "apostle-islands-area-campground", "campground_name": "Apostle Islands Area Campground", "state": "WI", "campground_type": "Campground", "is_verified": false, "signal_score": 90, "carrier_count": 3, "remote_work_score": 77.5, "latitude": 46.804578, "longitude": -90.8366846}, {"slug": "appalachian-campground", "campground_name": "Appalachian Campground", "state": "PA", "campground_type": "Campground", "is_verified": false, "signal_score": 90, "carrier_count": 3, "remote_work_score": 96.0, "latitude": 40.5170981, "longitude": -76.1194124}, {"slug": "apple-river-family-campground", "campground_name": "Apple River Family Campground", "state": "WI", "campground_type": "Campground", "is_verified": false, "signal_score": 40, "carrier_count": 1, "remote_work_score": 58.6, "latitude": 45.1317958, "longitude": -92.6776803}, {"slug": "apple-river-park-campground", "campground_name": "Apple River Park & Campground", "state": "WI", "campground_type": "Campground", "is_verified": false, "signal_score": 40, "carrier_count": 1, "remote_work_score": 52.1, "latitude": 45.3873679, "longitude": -92.3712746}, {"slug": "appleton-lake-rustic-campground", "campground_name": "Appleton Lake Rustic Campground", "state": "MI", "campground_type": "Campground", "is_verified": false, "signal_score": 40, "carrier_count": 1, "remote_work_score": 61.1, "latitude": 42.5068045, "longitude": -83.8344115}, {"slug": "aqualand-campground", "campground_name": "Aqualand Campground", "state": "WI", "campground_type": "Campground", "is_verified": false, "signal_score": 40, "carrier_count": 1, "remote_work_score": 46.1, "latitude": 45.1545197, "longitude": -87.126503}, {"slug": "aquila", "campground_name": "Aquila", "state": "MI", "campground_type": "Campground", "is_verified": false, "signal_score": 40, "carrier_count": 1, "remote_work_score": 54.6, "latitude": 43.4438839, "longitude": -86.186837}, {"slug": "arapahoe", "campground_name": "Arapahoe", "state": "WI", "campground_type": "Campground", "is_verified": false, "signal_score": 40, "carrier_count": 1, "remote_work_score": 43.6, "latitude": 45.6928985, "longitude": -91.7067696}, {"slug": "arapahoe-wi", "campground_name": "Arapahoe", "state": "WI", "campground_type": "Campground", "is_verified": false, "signal_score": 10, "carrier_count": 0, "remote_work_score": 37.8, "latitude": 44.0553164, "longitude": -91.2820562}, {"slug": "arbutus-number-four-state-forest-campground", "campground_name": "Arbutus Lake State Forest Campground", "state": "MI", "campground_type": "State Forest", "is_verified": true, "signal_score": 10, "carrier_count": 0, "remote_work_score": 32.8, "latitude": 44.67272, "longitude": -85.5222759}, {"slug": "area-31-campsite", "campground_name": "Area 31 Campsite", "state": "OH", "campground_type": "Campground", "is_verified": false, "signal_score": 70, "carrier_count": 2, "remote_work_score": 77.9, "latitude": 39.7332033, "longitude": -81.7978777}, {"slug": "armenia-mountain-campground", "campground_name": "Armenia Mountain Campground", "state": "PA", "campground_type": "Campground", "is_verified": false, "signal_score": 90, "carrier_count": 3, "remote_work_score": 87.5, "latitude": 41.7528316, "longitude": -76.872392}, {"slug": "army-lake-camp", "campground_name": "Army Lake Camp", "state": "WI", "campground_type": "Campground", "is_verified": false, "signal_score": 70, "carrier_count": 2, "remote_work_score": 80.4, "latitude": 42.8118979, "longitude": -88.3781907}, {"slug": "arrowhead-bible-camp", "campground_name": "Arrowhead Bible Camp", "state": "WI", "campground_type": "Campground", "is_verified": false, "signal_score": 10, "carrier_count": 0, "remote_work_score": 31.3, "latitude": 45.2884782, "longitude": -91.4453223}, {"slug": "arrowhead-lakes-resort", "campground_name": "Arrowhead Lakes Resort", "state": "OH", "campground_type": "Private", "is_verified": false, "signal_score": 90, "carrier_count": 3, "remote_work_score": 96.0, "latitude": 40.5594021, "longitude": -84.1621365}, {"slug": "artillery-ridge-campground-gettysburg-horse-park", "campground_name": "Artillery Ridge Campground & Gettysburg Horse Park", "state": "PA", "campground_type": "Campground", "is_verified": false, "signal_score": 70, "carrier_count": 2, "remote_work_score": 80.4, "latitude": 39.8015861, "longitude": -77.2260474}, {"slug": "ash", "campground_name": "Ash", "state": "WI", "campground_type": "Campground", "is_verified": false, "signal_score": 40, "carrier_count": 1, "remote_work_score": 58.6, "latitude": 42.5071499, "longitude": -88.1699608}, {"slug": "aspen", "campground_name": "Aspen", "state": "WI", "campground_type": "Campground", "is_verified": false, "signal_score": 40, "carrier_count": 1, "remote_work_score": 58.6, "latitude": 42.5073582, "longitude": -88.1705064}, {"slug": "aspen-glen", "campground_name": "Aspen Glen", "state": "OH", "campground_type": "Campground", "is_verified": false, "signal_score": 90, "carrier_count": 3, "remote_work_score": 93.5, "latitude": 41.6891141, "longitude": -80.8791259}, {"slug": "association-retreat-center", "campground_name": "Association Retreat Center", "state": "WI", "campground_type": "Campground", "is_verified": false, "signal_score": 90, "carrier_count": 3, "remote_work_score": 91.0, "latitude": 45.2514076, "longitude": -92.6417366}, {"slug": "astico-county-park-campground", "campground_name": "Astico County Park Campground", "state": "WI", "campground_type": "County Park", "is_verified": false, "signal_score": 40, "carrier_count": 1, "remote_work_score": 57.1, "latitude": 43.3272141, "longitude": -88.9514678}, {"slug": "atwood", "campground_name": "Atwood", "state": "OH", "campground_type": "Campground", "is_verified": false, "signal_score": 40, "carrier_count": 1, "remote_work_score": 54.6, "latitude": 40.5443394, "longitude": -81.2645548}, {"slug": "atwood-lake-campground-main-gate", "campground_name": "Atwood Lake Campground (main gate)", "state": "OH", "campground_type": "Campground", "is_verified": false, "signal_score": 40, "carrier_count": 1, "remote_work_score": 58.6, "latitude": 40.544736, "longitude": -81.2699707}, {"slug": "au-sable-east-group-campground", "campground_name": "Au Sable East Group Campground", "state": "MI", "campground_type": "Campground", "is_verified": false, "signal_score": 70, "carrier_count": 2, "remote_work_score": 60.4, "latitude": 46.6710834, "longitude": -86.1362309}, {"slug": "au-sable-loop-campground", "campground_name": "Au Sable Loop Campground", "state": "MI", "campground_type": "National Forest", "is_verified": true, "signal_score": 70, "carrier_count": 2, "remote_work_score": 69.4, "latitude": 44.65199, "longitude": -84.1004893}, {"slug": "au-sable-point-campground", "campground_name": "Au Sable Point Campground", "state": "MI", "campground_type": "Campground", "is_verified": false, "signal_score": 10, "carrier_count": 0, "remote_work_score": 13.8, "latitude": 46.6427429, "longitude": -86.2107225}, {"slug": "au-sable-point-campsite", "campground_name": "Au Sable Point Campsite", "state": "MI", "campground_type": "Campground", "is_verified": false, "signal_score": 70, "carrier_count": 2, "remote_work_score": 60.4, "latitude": 46.6697175, "longitude": -86.1358412}, {"slug": "au-train-lake-campground", "campground_name": "Au Train Lake Campground", "state": "MI", "campground_type": "National Forest", "is_verified": true, "signal_score": 10, "carrier_count": 0, "remote_work_score": 18.8, "latitude": 46.3938798, "longitude": -86.8357585}, {"slug": "augie-moeller-campsite", "campground_name": "Augie Moeller Campsite", "state": "MI", "campground_type": "Campground", "is_verified": false, "signal_score": 40, "carrier_count": 1, "remote_work_score": 61.1, "latitude": 43.7270068, "longitude": -87.7798327}, {"slug": "ausable-river-state-forest-campground-and-canoe-camp", "campground_name": "AuSable River State Forest Campground and Canoe Camp", "state": "MI", "campground_type": "State Forest", "is_verified": true, "signal_score": 70, "carrier_count": 2, "remote_work_score": 74.4, "latitude": 44.6655641, "longitude": -84.6588487}, {"slug": "austin-campground", "campground_name": "Austin Campground", "state": "PA", "campground_type": "Campground", "is_verified": false, "signal_score": 40, "carrier_count": 1, "remote_work_score": 43.6, "latitude": 41.568454, "longitude": -78.0200532}, {"slug": "avery-lake-state-forest-campground", "campground_name": "Avery Lake State Forest Campground", "state": "MI", "campground_type": "State Forest", "is_verified": true, "signal_score": 10, "carrier_count": 0, "remote_work_score": 22.8, "latitude": 44.9322672, "longitude": -84.1876192}, {"slug": "avoca-lakeside-city-campground", "campground_name": "Avoca Lakeside City Campground", "state": "WI", "campground_type": "Campground", "is_verified": false, "signal_score": 70, "carrier_count": 2, "remote_work_score": 69.4, "latitude": 43.1899231, "longitude": -90.3185725}, {"slug": "b-mi", "campground_name": "B", "state": "MI", "campground_type": "Campground", "is_verified": false, "signal_score": 10, "carrier_count": 0, "remote_work_score": 20.3, "latitude": 45.407208, "longitude": -86.8120926}, {"slug": "b-bar-m-campground", "campground_name": "B Bar M Campground", "state": "PA", "campground_type": "Campground", "is_verified": false, "signal_score": 90, "carrier_count": 3, "remote_work_score": 93.5, "latitude": 41.2026226, "longitude": -78.5732684}, {"slug": "babb-s-island-camp", "campground_name": "Babb's Island Camp", "state": "WI", "campground_type": "State Park", "is_verified": false, "signal_score": 10, "carrier_count": 0, "remote_work_score": 15.3, "latitude": 45.7694473, "longitude": -90.7547694}, {"slug": "babcock-county-park-campground", "campground_name": "Babcock County Park Campground", "state": "WI", "campground_type": "County Park", "is_verified": false, "signal_score": 70, "carrier_count": 2, "remote_work_score": 84.4, "latitude": 43.0115185, "longitude": -89.3039945}, {"slug": "backcountry-campsite-bc-2", "campground_name": "Backcountry Campsite #BC-2", "state": "WI", "campground_type": "Campground", "is_verified": false, "signal_score": 10, "carrier_count": 0, "remote_work_score": 10.8, "latitude": 46.792467, "longitude": -89.7906398}, {"slug": "backcountry-campsite-ls-13", "campground_name": "Backcountry Campsite #LS-13", "state": "WI", "campground_type": "Campground", "is_verified": false, "signal_score": 10, "carrier_count": 0, "remote_work_score": 10.8, "latitude": 46.8040886, "longitude": -89.8312528}, {"slug": "backcountry-campsite-ls-14", "campground_name": "Backcountry Campsite #LS-14", "state": "WI", "campground_type": "Campground", "is_verified": false, "signal_score": 10, "carrier_count": 0, "remote_work_score": 10.8, "latitude": 46.8041419, "longitude": -89.8310383}, {"slug": "backcountry-campsite-bc2", "campground_name": "Backcountry campsite BC2", "state": "WI", "campground_type": "Campground", "is_verified": false, "signal_score": 10, "carrier_count": 0, "remote_work_score": 10.8, "latitude": 46.7734891, "longitude": -89.8258541}, {"slug": "backcountry-campsite-bc3", "campground_name": "Backcountry campsite BC3", "state": "WI", "campground_type": "Campground", "is_verified": false, "signal_score": 10, "carrier_count": 0, "remote_work_score": 10.8, "latitude": 46.7707065, "longitude": -89.8274187}, {"slug": "backcountry-campsite-bc4", "campground_name": "Backcountry campsite BC4", "state": "WI", "campground_type": "Campground", "is_verified": false, "signal_score": 10, "carrier_count": 0, "remote_work_score": 10.8, "latitude": 46.7702268, "longitude": -89.8273346}, {"slug": "backpacking-campsite-a-of-a-b-c", "campground_name": "BackPacking Campsite A (of A,B, & C)", "state": "OH", "campground_type": "Campground", "is_verified": false, "signal_score": 40, "carrier_count": 1, "remote_work_score": 58.6, "latitude": 39.6405891, "longitude": -84.4265441}, {"slug": "backyard-burdickville", "campground_name": "Backyard Burdickville", "state": "MI", "campground_type": "Campground", "is_verified": false, "signal_score": 90, "carrier_count": 3, "remote_work_score": 88.5, "latitude": 44.8056787, "longitude": -85.9319309}, {"slug": "baden-powell", "campground_name": "Baden Powell", "state": "PA", "campground_type": "Campground", "is_verified": false, "signal_score": 90, "carrier_count": 3, "remote_work_score": 87.5, "latitude": 40.8507085, "longitude": -77.248364}, {"slug": "badger", "campground_name": "Badger", "state": "WI", "campground_type": "Campground", "is_verified": false, "signal_score": 10, "carrier_count": 0, "remote_work_score": 25.3, "latitude": 44.1487344, "longitude": -89.1401417}, {"slug": "badger-camp-resort", "campground_name": "Badger Camp & Resort", "state": "WI", "campground_type": "Private", "is_verified": false, "signal_score": 40, "carrier_count": 1, "remote_work_score": 54.6, "latitude": 43.5392412, "longitude": -87.9401887}, {"slug": "badgerland-campground", "campground_name": "Badgerland Campground", "state": "WI", "campground_type": "Campground", "is_verified": false, "signal_score": 40, "carrier_count": 1, "remote_work_score": 61.1, "latitude": 42.9753148, "longitude": -89.2166749}, {"slug": "badlands", "campground_name": "Badlands", "state": "MI", "campground_type": "Campground", "is_verified": false, "signal_score": 70, "carrier_count": 2, "remote_work_score": 80.4, "latitude": 43.4145283, "longitude": -86.2485287}, {"slug": "bagley-rapids-campground", "campground_name": "Bagley Rapids Campground", "state": "WI", "campground_type": "National Forest", "is_verified": true, "signal_score": 10, "carrier_count": 0, "remote_work_score": 22.8, "latitude": 45.157034, "longitude": -88.4655383}, {"slug": "baker-s-field", "campground_name": "Baker's Field", "state": "WI", "campground_type": "Campground", "is_verified": false, "signal_score": 10, "carrier_count": 0, "remote_work_score": 31.3, "latitude": 43.6575544, "longitude": -90.2248495}, {"slug": "baker-s-field-bike-trail-camping", "campground_name": "Baker's Field Bike Trail Camping", "state": "WI", "campground_type": "Campground", "is_verified": false, "signal_score": 10, "carrier_count": 0, "remote_work_score": 31.3, "latitude": 43.657959, "longitude": -90.2258526}, {"slug": "bald-eagle-72", "campground_name": "Bald Eagle #72", "state": "PA", "campground_type": "Campground", "is_verified": false, "signal_score": 90, "carrier_count": 3, "remote_work_score": 87.5, "latitude": 40.7346044, "longitude": -77.0951308}, {"slug": "ballard-canoe-1", "campground_name": "Ballard Canoe 1", "state": "WI", "campground_type": "State Forest", "is_verified": true, "signal_score": 10, "carrier_count": 0, "remote_work_score": 15.3, "latitude": 46.0685258, "longitude": -89.4987174}, {"slug": "ballard-canoe-2", "campground_name": "Ballard Canoe 2", "state": "WI", "campground_type": "State Forest", "is_verified": true, "signal_score": 10, "carrier_count": 0, "remote_work_score": 15.3, "latitude": 46.0678694, "longitude": -89.4955391}, {"slug": "balsam-lake-campground", "campground_name": "Balsam Lake Campground", "state": "WI", "campground_type": "Campground", "is_verified": false, "signal_score": 10, "carrier_count": 0, "remote_work_score": 28.8, "latitude": 45.4506236, "longitude": -92.4571005}, {"slug": "baraboo-hills-campground", "campground_name": "Baraboo Hills Campground", "state": "WI", "campground_type": "Campground", "is_verified": false, "signal_score": 70, "carrier_count": 2, "remote_work_score": 84.4, "latitude": 43.4947915, "longitude": -89.7954069}, {"slug": "baraga-state-park", "campground_name": "Baraga State Park", "state": "MI", "campground_type": "State Park", "is_verified": false, "signal_score": 70, "carrier_count": 2, "remote_work_score": 60.4, "latitude": 46.7615477, "longitude": -88.5017512}, {"slug": "bark-n-beavers", "campground_name": "Bark 'N' Beavers", "state": "WI", "campground_type": "Campground", "is_verified": false, "signal_score": 40, "carrier_count": 1, "remote_work_score": 43.6, "latitude": 46.7381436, "longitude": -91.4252325}, {"slug": "barnes-county-park-campground", "campground_name": "Barnes County Park Campground", "state": "MI", "campground_type": "County Park", "is_verified": false, "signal_score": 90, "carrier_count": 3, "remote_work_score": 82.5, "latitude": 45.1119867, "longitude": -85.3602233}, {"slug": "bashore-scout-reservation", "campground_name": "Bashore Scout Reservation", "state": "PA", "campground_type": "Scout Camp", "is_verified": false, "signal_score": 90, "carrier_count": 3, "remote_work_score": 96.0, "latitude": 40.4715528, "longitude": -76.571041}, {"slug": "bass-lake-camp", "campground_name": "Bass Lake Camp", "state": "MI", "campground_type": "Private", "is_verified": false, "signal_score": 40, "carrier_count": 1, "remote_work_score": 57.1, "latitude": 43.4193973, "longitude": -86.2104189}, {"slug": "bass-lake-campsite", "campground_name": "Bass Lake Campsite", "state": "MI", "campground_type": "Campground", "is_verified": false, "signal_score": 10, "carrier_count": 0, "remote_work_score": 18.8, "latitude": 46.1680919, "longitude": -86.4815185}, {"slug": "bass-lake-state-forest-campground", "campground_name": "Bass Lake State Forest Campground", "state": "MI", "campground_type": "State Forest", "is_verified": true, "signal_score": 10, "carrier_count": 0, "remote_work_score": 24.8, "latitude": 46.2634106, "longitude": -87.5863803}, {"slug": "bass-lake-state-forest-campground-luce", "campground_name": "Bass Lake State Forest Campground (Luce)", "state": "MI", "campground_type": "State Forest", "is_verified": true, "signal_score": 10, "carrier_count": 0, "remote_work_score": 15.3, "latitude": 46.4629099, "longitude": -85.7087656}, {"slug": "bassett-island-campground", "campground_name": "Bassett Island Campground", "state": "MI", "campground_type": "County Park", "is_verified": false, "signal_score": 70, "carrier_count": 2, "remote_work_score": 76.9, "latitude": 44.8725633, "longitude": -85.570102}, {"slug": "basswood", "campground_name": "Basswood", "state": "WI", "campground_type": "Campground", "is_verified": false, "signal_score": 40, "carrier_count": 1, "remote_work_score": 58.6, "latitude": 42.5070446, "longitude": -88.1695738}, {"slug": "basswoods", "campground_name": "Basswoods", "state": "MI", "campground_type": "Campground", "is_verified": false, "signal_score": 90, "carrier_count": 3, "remote_work_score": 97.5, "latitude": 42.2061574, "longitude": -84.2453684}, {"slug": "bates-township-park-sunset-lake-campground", "campground_name": "Bates Township Park/Sunset Lake Campground", "state": "MI", "campground_type": "Campground", "is_verified": false, "signal_score": 90, "carrier_count": 3, "remote_work_score": 76.0, "latitude": 46.129583, "longitude": -88.5872014}, {"slug": "batura", "campground_name": "BATURA", "state": "WI", "campground_type": "Campground", "is_verified": false, "signal_score": 10, "carrier_count": 0, "remote_work_score": 28.8, "latitude": 44.1218065, "longitude": -89.9578925}, {"slug": "bavarian-campsite", "campground_name": "Bavarian Campsite", "state": "WI", "campground_type": "Campground", "is_verified": false, "signal_score": 10, "carrier_count": 0, "remote_work_score": 25.3, "latitude": 43.8999425, "longitude": -90.0101451}, {"slug": "baxter-bridge-state-forest-campground", "campground_name": "Baxter Bridge State Forest Campground", "state": "MI", "campground_type": "State Forest", "is_verified": true, "signal_score": 10, "carrier_count": 0, "remote_work_score": 31.3, "latitude": 44.4932869, "longitude": -85.5237806}, {"slug": "bay-city-campground", "campground_name": "Bay City Campground", "state": "WI", "campground_type": "Campground", "is_verified": false, "signal_score": 40, "carrier_count": 1, "remote_work_score": 52.1, "latitude": 44.5797314, "longitude": -92.4554505}, {"slug": "bay-city-state-park-campgrounds", "campground_name": "Bay City State Park Campground", "state": "MI", "campground_type": "State Park", "is_verified": true, "signal_score": 40, "carrier_count": 1, "remote_work_score": 61.1, "latitude": 43.6642649, "longitude": -83.9019603}, {"slug": "bay-cliff-health-camp", "campground_name": "Bay Cliff Health Camp", "state": "MI", "campground_type": "Campground", "is_verified": false, "signal_score": 90, "carrier_count": 3, "remote_work_score": 87.0, "latitude": 46.8261246, "longitude": -87.7322829}, {"slug": "bay-de-noc-trailhead-camping", "campground_name": "Bay de Noc Trailhead Camping", "state": "MI", "campground_type": "Campground", "is_verified": false, "signal_score": 70, "carrier_count": 2, "remote_work_score": 71.4, "latitude": 45.9331678, "longitude": -86.9193183}, {"slug": "bay-furnace-campground", "campground_name": "Bay Furnace Campground", "state": "MI", "campground_type": "National Forest", "is_verified": true, "signal_score": 90, "carrier_count": 3, "remote_work_score": 81.0, "latitude": 46.4410335, "longitude": -86.7075626}, {"slug": "bay-park-resort-campground", "campground_name": "Bay Park Resort & Campground", "state": "WI", "campground_type": "Private", "is_verified": false, "signal_score": 40, "carrier_count": 1, "remote_work_score": 41.1, "latitude": 45.9361866, "longitude": -91.8861069}, {"slug": "bay-point-campground", "campground_name": "Bay Point Campground", "state": "OH", "campground_type": "Private", "is_verified": false, "signal_score": 90, "carrier_count": 3, "remote_work_score": 97.5, "latitude": 41.502579, "longitude": -82.7158876}, {"slug": "bay-shore-park-campground", "campground_name": "Bay Shore Park Campground", "state": "WI", "campground_type": "Campground", "is_verified": false, "signal_score": 40, "carrier_count": 1, "remote_work_score": 54.6, "latitude": 44.6358606, "longitude": -87.7971828}, {"slug": "bay-view-campground", "campground_name": "Bay View Campground", "state": "MI", "campground_type": "Campground", "is_verified": false, "signal_score": 40, "carrier_count": 1, "remote_work_score": 52.1, "latitude": 46.4498088, "longitude": -84.7806619}, {"slug": "baylor-beach-park-water-park-campground", "campground_name": "Baylor Beach Park;Water Park & Campground", "state": "OH", "campground_type": "Campground", "is_verified": false, "signal_score": 40, "carrier_count": 1, "remote_work_score": 58.6, "latitude": 40.6884261, "longitude": -81.6026755}, {"slug": "bayridge-rv-park-campground", "campground_name": "Bayridge RV Park & Campground", "state": "MI", "campground_type": "Campground", "is_verified": false, "signal_score": 70, "carrier_count": 2, "remote_work_score": 65.4, "latitude": 45.7871652, "longitude": -86.5677305}, {"slug": "beacon-hill-camping", "campground_name": "Beacon Hill Camping", "state": "PA", "campground_type": "Campground", "is_verified": false, "signal_score": 70, "carrier_count": 2, "remote_work_score": 81.9, "latitude": 40.0462921, "longitude": -76.1146521}, {"slug": "bear", "campground_name": "Bear", "state": "PA", "campground_type": "Campground", "is_verified": false, "signal_score": 90, "carrier_count": 3, "remote_work_score": 87.5, "latitude": 40.8530944, "longitude": -77.2495763}, {"slug": "bear-wi", "campground_name": "Bear", "state": "WI", "campground_type": "Campground", "is_verified": false, "signal_score": 10, "carrier_count": 0, "remote_work_score": 25.3, "latitude": 44.1502288, "longitude": -89.1398603}, {"slug": "bear-creek-campground", "campground_name": "Bear Creek Campground", "state": "OH", "campground_type": "Campground", "is_verified": false, "signal_score": 90, "carrier_count": 3, "remote_work_score": 93.5, "latitude": 38.9222872, "longitude": -83.0510461}, {"slug": "bear-island-primitive-campsite", "campground_name": "Bear Island Primitive Campsite", "state": "MI", "campground_type": "National Forest", "is_verified": true, "signal_score": 10, "carrier_count": 0, "remote_work_score": 20.3, "latitude": 44.6327488, "longitude": -83.8933068}, {"slug": "bear-lake-horse-camp", "campground_name": "Bear Lake Horse Camp", "state": "OH", "campground_type": "State Forest", "is_verified": true, "signal_score": 10, "carrier_count": 0, "remote_work_score": 28.8, "latitude": 38.7825005, "longitude": -83.1785149}, {"slug": "bear-lake-recreation-area-campground", "campground_name": "Bear Lake Recreation Area Campground", "state": "WI", "campground_type": "National Forest", "is_verified": true, "signal_score": 10, "carrier_count": 0, "remote_work_score": 15.3, "latitude": 45.5135124, "longitude": -88.5296302}, {"slug": "bear-paw", "campground_name": "Bear Paw", "state": "PA", "campground_type": "Campground", "is_verified": false, "signal_score": 90, "carrier_count": 3, "remote_work_score": 87.5, "latitude": 41.1027977, "longitude": -75.0848668}, {"slug": "bear-paw-scout-camp", "campground_name": "Bear Paw Scout Camp", "state": "WI", "campground_type": "Scout Camp", "is_verified": false, "signal_score": 40, "carrier_count": 1, "remote_work_score": 46.1, "latitude": 45.1804737, "longitude": -88.3965068}, {"slug": "bear-ridge-campground-rv-resort", "campground_name": "Bear Ridge Campground & RV Resort", "state": "PA", "campground_type": "Private", "is_verified": false, "signal_score": 40, "carrier_count": 1, "remote_work_score": 54.6, "latitude": 40.8881991, "longitude": -79.4278642}, {"slug": "bear-run-campground", "campground_name": "Bear Run Campground", "state": "PA", "campground_type": "Campground", "is_verified": false, "signal_score": 40, "carrier_count": 1, "remote_work_score": 57.1, "latitude": 40.9280421, "longitude": -80.1232611}, {"slug": "bear-track-campground", "campground_name": "Bear Track Campground", "state": "MI", "campground_type": "National Forest", "is_verified": true, "signal_score": 10, "carrier_count": 0, "remote_work_score": 22.8, "latitude": 44.1474023, "longitude": -86.030919}, {"slug": "bear-trail", "campground_name": "Bear Trail", "state": "WI", "campground_type": "Campground", "is_verified": false, "signal_score": 10, "carrier_count": 0, "remote_work_score": 31.3, "latitude": 43.6904954, "longitude": -88.1663725}, {"slug": "beaufort-lake-state-forest-campground", "campground_name": "Beaufort Lake State Forest Campground", "state": "MI", "campground_type": "State Forest", "is_verified": true, "signal_score": 10, "carrier_count": 0, "remote_work_score": 18.8, "latitude": 46.5477905, "longitude": -88.1886845}, {"slug": "beaver", "campground_name": "Beaver", "state": "PA", "campground_type": "Campground", "is_verified": false, "signal_score": 90, "carrier_count": 3, "remote_work_score": 87.5, "latitude": 40.8536239, "longitude": -77.2495307}, {"slug": "beaver-creek-campground", "campground_name": "Beaver Creek Campground", "state": "MI", "campground_type": "National Forest", "is_verified": true, "signal_score": 10, "carrier_count": 0, "remote_work_score": 18.8, "latitude": 46.5775019, "longitude": -86.3500495}, {"slug": "beaver-island-campground", "campground_name": "Beaver Island Campground", "state": "MI", "campground_type": "Campground", "is_verified": false, "signal_score": 10, "carrier_count": 0, "remote_work_score": 10.8, "latitude": 47.9057941, "longitude": -89.173111}, {"slug": "beaver-lake-campground", "campground_name": "Beaver Lake Campground", "state": "WI", "campground_type": "National Forest", "is_verified": true, "signal_score": 10, "carrier_count": 0, "remote_work_score": 13.8, "latitude": 46.3018778, "longitude": -90.8975193}, {"slug": "beaver-meadows-recreational-area-campground", "campground_name": "Beaver Meadows Recreational Area Campground", "state": "PA", "campground_type": "Campground", "is_verified": false, "signal_score": 70, "carrier_count": 2, "remote_work_score": 69.4, "latitude": 41.5239114, "longitude": -79.1130178}, {"slug": "beaver-point", "campground_name": "Beaver Point", "state": "MI", "campground_type": "Private", "is_verified": false, "signal_score": 70, "carrier_count": 2, "remote_work_score": 80.4, "latitude": 41.9670763, "longitude": -86.3581236}, {"slug": "beaver-run-campsite", "campground_name": "Beaver Run Campsite", "state": "PA", "campground_type": "Campground", "is_verified": false, "signal_score": 10, "carrier_count": 0, "remote_work_score": 22.8, "latitude": 41.6116809, "longitude": -79.2720696}, {"slug": "beaver-valley-camp", "campground_name": "Beaver Valley Camp", "state": "WI", "campground_type": "Campground", "is_verified": false, "signal_score": 90, "carrier_count": 3, "remote_work_score": 93.5, "latitude": 45.2395506, "longitude": -92.7469485}, {"slug": "beaver-valley-campgrounds", "campground_name": "Beaver Valley Campgrounds", "state": "PA", "campground_type": "Campground", "is_verified": false, "signal_score": 90, "carrier_count": 3, "remote_work_score": 93.5, "latitude": 40.4940855, "longitude": -75.1373413}, {"slug": "beech", "campground_name": "Beech", "state": "WI", "campground_type": "Campground", "is_verified": false, "signal_score": 40, "carrier_count": 1, "remote_work_score": 58.6, "latitude": 42.5067175, "longitude": -88.1693911}, {"slug": "beeches", "campground_name": "Beeches", "state": "OH", "campground_type": "Campground", "is_verified": false, "signal_score": 70, "carrier_count": 2, "remote_work_score": 84.4, "latitude": 39.3116296, "longitude": -84.2506302}, {"slug": "beeches-mi", "campground_name": "Beeches", "state": "MI", "campground_type": "Campground", "is_verified": false, "signal_score": 70, "carrier_count": 2, "remote_work_score": 81.9, "latitude": 42.2022586, "longitude": -84.25742}, {"slug": "beechwood-campground", "campground_name": "Beechwood Campground", "state": "MI", "campground_type": "Campground", "is_verified": false, "signal_score": 70, "carrier_count": 2, "remote_work_score": 66.9, "latitude": 44.0382817, "longitude": -86.495368}, {"slug": "beechwood-hills-camp", "campground_name": "Beechwood Hills Camp", "state": "MI", "campground_type": "Campground", "is_verified": false, "signal_score": 90, "carrier_count": 3, "remote_work_score": 93.5, "latitude": 42.6506952, "longitude": -85.7653957}, {"slug": "begley-s-atv-campground", "campground_name": "Begley's ATV Campground", "state": "OH", "campground_type": "Campground", "is_verified": false, "signal_score": 70, "carrier_count": 2, "remote_work_score": 77.9, "latitude": 39.5762741, "longitude": -82.2351876}, {"slug": "belle-isle", "campground_name": "Belle Isle", "state": "MI", "campground_type": "Campground", "is_verified": false, "signal_score": 10, "carrier_count": 0, "remote_work_score": 10.8, "latitude": 48.1523741, "longitude": -88.5853473}, {"slug": "benach-lake-campsite", "campground_name": "Benach Lake Campsite", "state": "WI", "campground_type": "County Park", "is_verified": false, "signal_score": 70, "carrier_count": 2, "remote_work_score": 61.9, "latitude": 45.9279415, "longitude": -92.2572442}, {"slug": "benchmark-campsite", "campground_name": "Benchmark Campsite", "state": "MI", "campground_type": "Campground", "is_verified": false, "signal_score": 10, "carrier_count": 0, "remote_work_score": 13.8, "latitude": 46.647032, "longitude": -86.2008407}, {"slug": "benezette-store-campground", "campground_name": "Benezette Store Campground", "state": "PA", "campground_type": "Campground", "is_verified": false, "signal_score": 10, "carrier_count": 0, "remote_work_score": 28.8, "latitude": 41.3141515, "longitude": -78.3922572}, {"slug": "benner-s-meadow-run-camping-cabins", "campground_name": "Benner's Meadow Run Camping  & Cabins", "state": "PA", "campground_type": "Campground", "is_verified": false, "signal_score": 90, "carrier_count": 3, "remote_work_score": 87.5, "latitude": 39.839003, "longitude": -79.5662253}, {"slug": "benton-lake-campground", "campground_name": "Benton Lake Campground", "state": "MI", "campground_type": "Campground", "is_verified": false, "signal_score": 90, "carrier_count": 3, "remote_work_score": 85.0, "latitude": 43.668987, "longitude": -85.8898862}, {"slug": "berry-patch", "campground_name": "Berry Patch", "state": "OH", "campground_type": "Campground", "is_verified": false, "signal_score": 70, "carrier_count": 2, "remote_work_score": 84.4, "latitude": 39.3122916, "longitude": -84.2522476}, {"slug": "bethel-youth-camp", "campground_name": "Bethel Youth Camp", "state": "MI", "campground_type": "Campground", "is_verified": false, "signal_score": 10, "carrier_count": 0, "remote_work_score": 20.3, "latitude": 45.2948024, "longitude": -83.9140855}, {"slug": "betsie-river-campsite", "campground_name": "Betsie River Campsite", "state": "MI", "campground_type": "Campground", "is_verified": false, "signal_score": 90, "carrier_count": 3, "remote_work_score": 82.5, "latitude": 44.6130476, "longitude": -86.2039501}, {"slug": "betsie-river-canoes-campground", "campground_name": "Betsie River Canoes & Campground", "state": "MI", "campground_type": "Campground", "is_verified": false, "signal_score": 90, "carrier_count": 3, "remote_work_score": 91.0, "latitude": 44.5223587, "longitude": -85.966116}, {"slug": "ski-kwe-zaag-igan-state-forest-campground", "campground_name": "Bewabic State Park", "state": "MI", "campground_type": "State Park", "is_verified": true, "signal_score": 40, "carrier_count": 1, "remote_work_score": 42.1, "latitude": 46.2902283, "longitude": -88.0628004}, {"slug": "big-bay-state-park-campground", "campground_name": "Big Bay State Park Campground", "state": "WI", "campground_type": "State Park", "is_verified": false, "signal_score": 90, "carrier_count": 3, "remote_work_score": 76.0, "latitude": 46.796556, "longitude": -90.6736422}, {"slug": "big-bay-state-park-group-camp-site-1", "campground_name": "Big Bay State Park Group Camp Site 1", "state": "WI", "campground_type": "State Park", "is_verified": true, "signal_score": 90, "carrier_count": 3, "remote_work_score": 76.0, "latitude": 46.788424, "longitude": -90.6686323}, {"slug": "big-bay-state-park-group-camp-site-2", "campground_name": "Big Bay State Park Group Camp Site 2", "state": "WI", "campground_type": "State Park", "is_verified": true, "signal_score": 90, "carrier_count": 3, "remote_work_score": 76.0, "latitude": 46.8146013, "longitude": -90.6873502}, {"slug": "big-bay-town-park-campground", "campground_name": "Big Bay Town Park Campground", "state": "WI", "campground_type": "Campground", "is_verified": false, "signal_score": 90, "carrier_count": 3, "remote_work_score": 76.0, "latitude": 46.8195891, "longitude": -90.6779502}, {"slug": "big-bear-lake-state-forest-campground", "campground_name": "Big Bear Lake State Forest Campground", "state": "MI", "campground_type": "State Forest", "is_verified": true, "signal_score": 10, "carrier_count": 0, "remote_work_score": 25.3, "latitude": 44.9421125, "longitude": -84.3869319}, {"slug": "big-bear-lake-state-forest-campground-mi", "campground_name": "Big Bear Lake State Forest Campground", "state": "MI", "campground_type": "State Forest", "is_verified": false, "signal_score": 10, "carrier_count": 0, "remote_work_score": 25.3, "latitude": 44.9442329, "longitude": -84.380541}, {"slug": "big-bend-campsite", "campground_name": "Big Bend Campsite", "state": "OH", "campground_type": "Campground", "is_verified": false, "signal_score": 40, "carrier_count": 1, "remote_work_score": 61.1, "latitude": 41.1275596, "longitude": -81.5393343}, {"slug": "big-bend-township-park", "campground_name": "Big Bend Township Park", "state": "MI", "campground_type": "Campground", "is_verified": false, "signal_score": 40, "carrier_count": 1, "remote_work_score": 51.1, "latitude": 43.5134783, "longitude": -85.5803069}, {"slug": "big-butternut-lake", "campground_name": "Big Butternut Lake", "state": "WI", "campground_type": "Campground", "is_verified": false, "signal_score": 70, "carrier_count": 2, "remote_work_score": 69.4, "latitude": 45.5668925, "longitude": -92.4682854}, {"slug": "big-canoe-1", "campground_name": "Big Canoe 1", "state": "WI", "campground_type": "State Park", "is_verified": false, "signal_score": 90, "carrier_count": 3, "remote_work_score": 77.5, "latitude": 46.1520637, "longitude": -89.7465056}, {"slug": "big-canoe-2", "campground_name": "Big Canoe 2", "state": "WI", "campground_type": "State Park", "is_verified": false, "signal_score": 90, "carrier_count": 3, "remote_work_score": 77.5, "latitude": 46.148872, "longitude": -89.7476635}, {"slug": "big-eric-s-bridge-state-forest-campground", "campground_name": "Big Eric's Bridge State Forest Campground", "state": "MI", "campground_type": "State Forest", "is_verified": false, "signal_score": 10, "carrier_count": 0, "remote_work_score": 18.8, "latitude": 46.8651437, "longitude": -88.0847014}, {"slug": "big-falls-county-campground", "campground_name": "Big Falls County Campground", "state": "WI", "campground_type": "County Park", "is_verified": false, "signal_score": 10, "carrier_count": 0, "remote_work_score": 20.3, "latitude": 45.4023132, "longitude": -90.6338255}, {"slug": "rv-camping-big-foot-beach-state-park", "campground_name": "Big Foot Beach State Park Campground", "state": "WI", "campground_type": "State Park", "is_verified": true, "signal_score": 10, "carrier_count": 0, "remote_work_score": 37.8, "latitude": 42.5712604, "longitude": -88.4256133}, {"slug": "tent-camping-big-foot-beach-state-park", "campground_name": "Big Foot Beach State Park Campground", "state": "WI", "campground_type": "State Park", "is_verified": true, "signal_score": 10, "carrier_count": 0, "remote_work_score": 37.8, "latitude": 42.5696294, "longitude": -88.4276899}, {"slug": "big-knob-state-forest-campground", "campground_name": "Big Knob State Forest Campground", "state": "MI", "campground_type": "State Forest", "is_verified": true, "signal_score": 40, "carrier_count": 1, "remote_work_score": 38.6, "latitude": 46.03940123, "longitude": -85.59372823}, {"slug": "big-lake-campground", "campground_name": "Big Lake Campground", "state": "WI", "campground_type": "State Forest", "is_verified": true, "signal_score": 40, "carrier_count": 1, "remote_work_score": 38.6, "latitude": 46.1643288, "longitude": -89.7874639}, {"slug": "big-lake-state-forest-campground", "campground_name": "Big Lake State Forest Campground", "state": "WI", "campground_type": "State Forest", "is_verified": true, "signal_score": 40, "carrier_count": 1, "remote_work_score": 37.1, "latitude": 46.6116545, "longitude": -88.5725225}, {"slug": "big-loop", "campground_name": "Big Loop", "state": "PA", "campground_type": "Campground", "is_verified": false, "signal_score": 70, "carrier_count": 2, "remote_work_score": 75.4, "latitude": 41.3419482, "longitude": -76.2984026}, {"slug": "big-oaks-equestrian-state-campground", "campground_name": "Big Oaks Equestrian State Campground", "state": "MI", "campground_type": "Campground", "is_verified": false, "signal_score": 40, "carrier_count": 1, "remote_work_score": 46.1, "latitude": 44.9269325, "longitude": -84.1916442}, {"slug": "big-river-campground", "campground_name": "Big River Campground", "state": "WI", "campground_type": "Campground", "is_verified": false, "signal_score": 40, "carrier_count": 1, "remote_work_score": 43.6, "latitude": 43.0269289, "longitude": -91.1415724}, {"slug": "big-rock-campground", "campground_name": "Big Rock Campground", "state": "WI", "campground_type": "Campground", "is_verified": false, "signal_score": 10, "carrier_count": 0, "remote_work_score": 15.3, "latitude": 46.7101149, "longitude": -90.9254973}, {"slug": "big-traverse-bay-rustic-campground", "campground_name": "Big Traverse Bay Rustic Campground", "state": "MI", "campground_type": "Campground", "is_verified": false, "signal_score": 10, "carrier_count": 0, "remote_work_score": 13.8, "latitude": 47.1725231, "longitude": -88.2432222}, {"slug": "bike-hike-campground", "campground_name": "Bike/Hike Campground", "state": "WI", "campground_type": "Campground", "is_verified": false, "signal_score": 70, "carrier_count": 2, "remote_work_score": 80.4, "latitude": 43.0191491, "longitude": -89.8481992}, {"slug": "bill-wagner-campground", "campground_name": "Bill Wagner Campground", "state": "MI", "campground_type": "Campground", "is_verified": false, "signal_score": 90, "carrier_count": 3, "remote_work_score": 77.5, "latitude": 45.6558755, "longitude": -85.4952513}, {"slug": "birch", "campground_name": "Birch", "state": "WI", "campground_type": "Private", "is_verified": false, "signal_score": 10, "carrier_count": 0, "remote_work_score": 20.3, "latitude": 45.3772539, "longitude": -88.9808579}, {"slug": "birch-wi", "campground_name": "Birch", "state": "WI", "campground_type": "Campground", "is_verified": false, "signal_score": 40, "carrier_count": 1, "remote_work_score": 58.6, "latitude": 42.5050784, "longitude": -88.1731884}, {"slug": "birch-grove-campground", "campground_name": "Birch Grove Campground", "state": "WI", "campground_type": "National Forest", "is_verified": true, "signal_score": 10, "carrier_count": 0, "remote_work_score": 20.3, "latitude": 46.6851297, "longitude": -91.0608829}, {"slug": "birch-island-campground", "campground_name": "Birch Island Campground", "state": "MI", "campground_type": "Campground", "is_verified": false, "signal_score": 10, "carrier_count": 0, "remote_work_score": 10.8, "latitude": 48.1101233, "longitude": -88.6856622}, {"slug": "birch-tree-michaux-campsite-4", "campground_name": "Birch Tree - Michaux Campsite #4", "state": "PA", "campground_type": "Campground", "is_verified": false, "signal_score": 70, "carrier_count": 2, "remote_work_score": 77.9, "latitude": 40.0269654, "longitude": -77.35457}, {"slug": "birchview-farm-campground", "campground_name": "Birchview Farm Campground", "state": "PA", "campground_type": "Campground", "is_verified": false, "signal_score": 90, "carrier_count": 3, "remote_work_score": 100, "latitude": 40.0378061, "longitude": -75.876561}, {"slug": "bird-song", "campground_name": "Bird Song", "state": "PA", "campground_type": "Campground", "is_verified": false, "signal_score": 90, "carrier_count": 3, "remote_work_score": 96.0, "latitude": 40.5333466, "longitude": -76.3464613}, {"slug": "bison", "campground_name": "Bison", "state": "PA", "campground_type": "Campground", "is_verified": false, "signal_score": 90, "carrier_count": 3, "remote_work_score": 87.5, "latitude": 40.8536685, "longitude": -77.251773}, {"slug": "black-bear-cabins", "campground_name": "Black Bear Cabins", "state": "PA", "campground_type": "Campground", "is_verified": false, "signal_score": 40, "carrier_count": 1, "remote_work_score": 48.6, "latitude": 41.3183943, "longitude": -79.1978078}, {"slug": "black-creek-state-forest-campground", "campground_name": "Black Creek State Forest Campground", "state": "MI", "campground_type": "State Forest", "is_verified": true, "signal_score": 40, "carrier_count": 1, "remote_work_score": 57.1, "latitude": 43.7105172, "longitude": -84.3976098}, {"slug": "black-lake-county-park-campground", "campground_name": "Black Lake County Park Campground", "state": "MI", "campground_type": "County Park", "is_verified": false, "signal_score": 70, "carrier_count": 2, "remote_work_score": 71.9, "latitude": 43.7462154, "longitude": -86.1191065}, {"slug": "black-lake-recreation-area-campground", "campground_name": "Black Lake Recreation Area Campground", "state": "WI", "campground_type": "National Forest", "is_verified": true, "signal_score": 10, "carrier_count": 0, "remote_work_score": 15.3, "latitude": 45.9891853, "longitude": -90.929231}, {"slug": "black-lake-state-forest-campground-lower", "campground_name": "Black Lake State Forest Campground-Lower", "state": "MI", "campground_type": "State Forest", "is_verified": true, "signal_score": 40, "carrier_count": 1, "remote_work_score": 46.1, "latitude": 45.4898429, "longitude": -84.2648557}, {"slug": "black-lake-state-forest-campground-upper", "campground_name": "Black Lake State Forest Campground-Upper", "state": "MI", "campground_type": "State Forest", "is_verified": true, "signal_score": 40, "carrier_count": 1, "remote_work_score": 46.1, "latitude": 45.4918894, "longitude": -84.2664641}, {"slug": "black-moshannon-state-park-campground", "campground_name": "Black Moshannon State Park Campground", "state": "PA", "campground_type": "State Park", "is_verified": true, "signal_score": 70, "carrier_count": 2, "remote_work_score": 80.4, "latitude": 40.9168476, "longitude": -78.06428}, {"slug": "black-oak", "campground_name": "Black Oak", "state": "WI", "campground_type": "Campground", "is_verified": false, "signal_score": 40, "carrier_count": 1, "remote_work_score": 58.6, "latitude": 42.5066452, "longitude": -88.1678408}, {"slug": "black-river-harbor-campground", "campground_name": "Black River Harbor Campground", "state": "WI", "campground_type": "Campground", "is_verified": false, "signal_score": 40, "carrier_count": 1, "remote_work_score": 37.1, "latitude": 46.6641804, "longitude": -90.0522092}, {"slug": "black-river-state-forest-campground", "campground_name": "Black River State Forest Campground", "state": "MI", "campground_type": "State Forest", "is_verified": true, "signal_score": 70, "carrier_count": 2, "remote_work_score": 61.9, "latitude": 46.1168599, "longitude": -85.363597}, {"slug": "black-rock-retreat", "campground_name": "Black Rock Retreat", "state": "PA", "campground_type": "Campground", "is_verified": false, "signal_score": 90, "carrier_count": 3, "remote_work_score": 93.5, "latitude": 39.869826, "longitude": -76.107771}, {"slug": "black-walnut-bottom", "campground_name": "Black Walnut Bottom", "state": "PA", "campground_type": "Campground", "is_verified": false, "signal_score": 90, "carrier_count": 3, "remote_work_score": 85.0, "latitude": 41.4464422, "longitude": -77.5180711}, {"slug": "blackfoot", "campground_name": "Blackfoot", "state": "PA", "campground_type": "Campground", "is_verified": false, "signal_score": 90, "carrier_count": 3, "remote_work_score": 93.5, "latitude": 41.0518534, "longitude": -80.0107493}, {"slug": "blackfoot-wi", "campground_name": "Blackfoot", "state": "WI", "campground_type": "Campground", "is_verified": false, "signal_score": 10, "carrier_count": 0, "remote_work_score": 37.8, "latitude": 44.0545331, "longitude": -91.2829623}, {"slug": "blackfoot-wi-2", "campground_name": "Blackfoot", "state": "WI", "campground_type": "Campground", "is_verified": false, "signal_score": 40, "carrier_count": 1, "remote_work_score": 43.6, "latitude": 45.697889, "longitude": -91.7034442}, {"slug": "blackfoot-wi-3", "campground_name": "Blackfoot", "state": "WI", "campground_type": "Private", "is_verified": false, "signal_score": 10, "carrier_count": 0, "remote_work_score": 20.3, "latitude": 45.3652993, "longitude": -88.9553101}, {"slug": "blackhawk", "campground_name": "Blackhawk", "state": "WI", "campground_type": "Campground", "is_verified": false, "signal_score": 10, "carrier_count": 0, "remote_work_score": 25.3, "latitude": 44.1532754, "longitude": -89.1520417}, {"slug": "blackhawk-county-park", "campground_name": "Blackhawk County Park", "state": "WI", "campground_type": "County Park", "is_verified": false, "signal_score": 10, "carrier_count": 0, "remote_work_score": 28.8, "latitude": 43.4631851, "longitude": -91.2235442}, {"slug": "blackhawk-lake-recreation-area-camping", "campground_name": "Blackhawk Lake Recreation Area Camping", "state": "WI", "campground_type": "Campground", "is_verified": false, "signal_score": 40, "carrier_count": 1, "remote_work_score": 54.6, "latitude": 43.0132829, "longitude": -90.287758}, {"slug": "blackhawk-memoreial-park-campground", "campground_name": "Blackhawk Memoreial Park Campground", "state": "WI", "campground_type": "Campground", "is_verified": false, "signal_score": 40, "carrier_count": 1, "remote_work_score": 54.6, "latitude": 42.6616883, "longitude": -89.87926}, {"slug": "blackhawk-park-campground", "campground_name": "Blackhawk Park Campground", "state": "WI", "campground_type": "Campground", "is_verified": false, "signal_score": 10, "carrier_count": 0, "remote_work_score": 22.8, "latitude": 43.4584145, "longitude": -91.2254314}, {"slug": "blacksmith-bayou-campground", "campground_name": "Blacksmith Bayou Campground", "state": "MI", "campground_type": "National Forest", "is_verified": true, "signal_score": 10, "carrier_count": 0, "remote_work_score": 22.8, "latitude": 44.2616973, "longitude": -86.0362686}, {"slug": "blind-lake-campground", "campground_name": "Blind Lake Rustic Campground", "state": "MI", "campground_type": "State Park", "is_verified": true, "signal_score": 40, "carrier_count": 1, "remote_work_score": 54.6, "latitude": 42.4120745, "longitude": -84.020485}, {"slug": "blind-sucker-no-1-state-forest-campground", "campground_name": "Blind Sucker No. 1 State Forest Campground", "state": "MI", "campground_type": "State Forest", "is_verified": true, "signal_score": 10, "carrier_count": 0, "remote_work_score": 13.8, "latitude": 46.669754, "longitude": -85.7621287}, {"slug": "blind-sucker-no-2-state-forest-campground", "campground_name": "Blind Sucker No. 2 State Forest Campground", "state": "MI", "campground_type": "State Forest", "is_verified": false, "signal_score": 10, "carrier_count": 0, "remote_work_score": 13.8, "latitude": 46.6666441, "longitude": -85.7536281}, {"slug": "bliss-hill-campsite", "campground_name": "Bliss Hill Campsite", "state": "PA", "campground_type": "Campground", "is_verified": false, "signal_score": 10, "carrier_count": 0, "remote_work_score": 22.8, "latitude": 41.7504131, "longitude": -78.8856861}, {"slug": "blockhouse-campground", "campground_name": "Blockhouse Campground", "state": "WI", "campground_type": "National Forest", "is_verified": true, "signal_score": 10, "carrier_count": 0, "remote_work_score": 13.8, "latitude": 46.2416166, "longitude": -88.6331906}, {"slug": "blodgett-landing", "campground_name": "Blodgett Landing", "state": "MI", "campground_type": "Campground", "is_verified": false, "signal_score": 90, "carrier_count": 3, "remote_work_score": 90.0, "latitude": 43.8488774, "longitude": -85.4353352}, {"slug": "blue-bell-campsite", "campground_name": "Blue Bell Campsite", "state": "MI", "campground_type": "Campground", "is_verified": false, "signal_score": 70, "carrier_count": 2, "remote_work_score": 71.4, "latitude": 44.8678075, "longitude": -83.3166919}, {"slug": "blue-dog-bike-camp", "campground_name": "Blue Dog Bike Camp", "state": "OH", "campground_type": "Campground", "is_verified": false, "signal_score": 90, "carrier_count": 3, "remote_work_score": 100, "latitude": 39.4142815, "longitude": -82.1835284}, {"slug": "blue-group-camping-area", "campground_name": "Blue Group Camping Area", "state": "MI", "campground_type": "Campground", "is_verified": false, "signal_score": 10, "carrier_count": 0, "remote_work_score": 20.3, "latitude": 44.4490774, "longitude": -83.4953618}, {"slug": "blue-knob-camping-area", "campground_name": "Blue Knob Camping Area", "state": "PA", "campground_type": "Campground", "is_verified": false, "signal_score": 70, "carrier_count": 2, "remote_work_score": 77.9, "latitude": 40.2904233, "longitude": -78.5920093}, {"slug": "blue-lake-park-campground", "campground_name": "Blue Lake Park Campground", "state": "MI", "campground_type": "County Park", "is_verified": false, "signal_score": 40, "carrier_count": 1, "remote_work_score": 54.6, "latitude": 43.4494761, "longitude": -86.1936946}, {"slug": "blue-mountain-campsite", "campground_name": "Blue Mountain Campsite", "state": "PA", "campground_type": "Campground", "is_verified": false, "signal_score": 90, "carrier_count": 3, "remote_work_score": 96.0, "latitude": 40.4969247, "longitude": -76.4156232}, {"slug": "blue-mountain-resort-campground", "campground_name": "Blue Mountain Resort Campground", "state": "PA", "campground_type": "Private", "is_verified": false, "signal_score": 90, "carrier_count": 3, "remote_work_score": 97.5, "latitude": 40.8208968, "longitude": -75.506017}, {"slug": "blue-rock-state-park-lower-campground", "campground_name": "Blue Rock State Park Lower Campground", "state": "OH", "campground_type": "State Park", "is_verified": true, "signal_score": 10, "carrier_count": 0, "remote_work_score": 31.3, "latitude": 39.8189109, "longitude": -81.8523437}, {"slug": "blue-rock-state-park-upper-campground", "campground_name": "Blue Rock State Park Upper Campground", "state": "OH", "campground_type": "State Park", "is_verified": true, "signal_score": 10, "carrier_count": 0, "remote_work_score": 31.3, "latitude": 39.8157837, "longitude": -81.8513577}, {"slug": "blue-rocks-family-campground", "campground_name": "Blue Rocks Family Campground", "state": "PA", "campground_type": "Campground", "is_verified": false, "signal_score": 90, "carrier_count": 3, "remote_work_score": 96.0, "latitude": 40.5926316, "longitude": -75.9122685}, {"slug": "blue-spruce-campground", "campground_name": "Blue Spruce Campground", "state": "MI", "campground_type": "Campground", "is_verified": false, "signal_score": 90, "carrier_count": 3, "remote_work_score": 96.0, "latitude": 44.4024964, "longitude": -85.3718705}, {"slug": "bluebird-springs-campground", "campground_name": "Bluebird Springs Campground", "state": "WI", "campground_type": "Campground", "is_verified": false, "signal_score": 40, "carrier_count": 1, "remote_work_score": 61.1, "latitude": 43.8215522, "longitude": -91.1636412}, {"slug": "bluewater-bay-campground", "campground_name": "Bluewater Bay Campground", "state": "WI", "campground_type": "Campground", "is_verified": false, "signal_score": 70, "carrier_count": 2, "remote_work_score": 84.4, "latitude": 43.5643467, "longitude": -89.8064144}, {"slug": "bob-lake-campground", "campground_name": "Bob Lake Campground", "state": "WI", "campground_type": "Campground", "is_verified": false, "signal_score": 10, "carrier_count": 0, "remote_work_score": 13.8, "latitude": 46.6620939, "longitude": -88.9140359}, {"slug": "bob-white", "campground_name": "Bob White", "state": "PA", "campground_type": "Campground", "is_verified": false, "signal_score": 90, "carrier_count": 3, "remote_work_score": 87.5, "latitude": 40.853277, "longitude": -77.2485946}, {"slug": "bobcat-lake-campground", "campground_name": "Bobcat Lake Campground", "state": "WI", "campground_type": "Campground", "is_verified": false, "signal_score": 90, "carrier_count": 3, "remote_work_score": 77.5, "latitude": 46.358875, "longitude": -89.6726464}, {"slug": "bobov-mesivta-camp", "campground_name": "Bobov Mesivta Camp", "state": "PA", "campground_type": "Campground", "is_verified": false, "signal_score": 90, "carrier_count": 3, "remote_work_score": 87.5, "latitude": 41.2515994, "longitude": -74.9545077}, {"slug": "bodi-lake-state-forest-campground", "campground_name": "Bodi Lake State Forest Campground", "state": "MI", "campground_type": "State Forest", "is_verified": true, "signal_score": 10, "carrier_count": 0, "remote_work_score": 20.3, "latitude": 46.7043559, "longitude": -85.3360222}, {"slug": "boelter-s-campground", "campground_name": "Boelter's Campground", "state": "WI", "campground_type": "Campground", "is_verified": false, "signal_score": 40, "carrier_count": 1, "remote_work_score": 61.1, "latitude": 43.970178, "longitude": -88.5622964}, {"slug": "bois-brule-campground", "campground_name": "Bois Brule Campground", "state": "WI", "campground_type": "State Forest", "is_verified": true, "signal_score": 70, "carrier_count": 2, "remote_work_score": 69.4, "latitude": 46.5395536, "longitude": -91.5916094}, {"slug": "brule-river-campground", "campground_name": "Bois Brule Campground", "state": "WI", "campground_type": "State Forest", "is_verified": true, "signal_score": 10, "carrier_count": 0, "remote_work_score": 15.3, "latitude": 46.0280746, "longitude": -88.7968678}, {"slug": "bolder-creek-campground", "campground_name": "Bolder Creek  Campground", "state": "WI", "campground_type": "Campground", "is_verified": false, "signal_score": 40, "carrier_count": 1, "remote_work_score": 43.6, "latitude": 42.9169175, "longitude": -91.1172646}, {"slug": "bonanza", "campground_name": "Bonanza", "state": "WI", "campground_type": "Campground", "is_verified": false, "signal_score": 70, "carrier_count": 2, "remote_work_score": 80.4, "latitude": 43.609991, "longitude": -89.7857892}, {"slug": "bonnell-flats", "campground_name": "Bonnell Flats", "state": "PA", "campground_type": "Campground", "is_verified": false, "signal_score": 40, "carrier_count": 1, "remote_work_score": 54.6, "latitude": 41.2779769, "longitude": -77.3195348}, {"slug": "boone", "campground_name": "Boone", "state": "WI", "campground_type": "Private", "is_verified": false, "signal_score": 10, "carrier_count": 0, "remote_work_score": 20.3, "latitude": 45.3671346, "longitude": -88.9686104}, {"slug": "boot-lake-campground", "campground_name": "Boot Lake Campground", "state": "WI", "campground_type": "National Forest", "is_verified": true, "signal_score": 10, "carrier_count": 0, "remote_work_score": 15.3, "latitude": 45.2685794, "longitude": -88.6456619}, {"slug": "boulder-canoe-1", "campground_name": "Boulder Canoe 1", "state": "WI", "campground_type": "State Park", "is_verified": false, "signal_score": 40, "carrier_count": 1, "remote_work_score": 38.6, "latitude": 46.124139, "longitude": -89.6712174}, {"slug": "boulder-canoe-2", "campground_name": "Boulder Canoe 2", "state": "WI", "campground_type": "State Park", "is_verified": true, "signal_score": 40, "carrier_count": 1, "remote_work_score": 38.6, "latitude": 46.1246277, "longitude": -89.6761198}, {"slug": "boulder-canoe-3", "campground_name": "Boulder Canoe 3", "state": "WI", "campground_type": "State Park", "is_verified": true, "signal_score": 70, "carrier_count": 2, "remote_work_score": 61.9, "latitude": 46.1247867, "longitude": -89.6825963}, {"slug": "boulder-lake-campground", "campground_name": "Boulder Lake Campground", "state": "WI", "campground_type": "Campground", "is_verified": false, "signal_score": 70, "carrier_count": 2, "remote_work_score": 69.4, "latitude": 45.1378244, "longitude": -88.6330328}, {"slug": "boulder-lake-recreation-area-campgrounds", "campground_name": "Boulder Lake Recreation Area Campgrounds", "state": "WI", "campground_type": "National Forest", "is_verified": true, "signal_score": 10, "carrier_count": 0, "remote_work_score": 22.8, "latitude": 45.1382829, "longitude": -88.632849}, {"slug": "boulder-woods-campground", "campground_name": "Boulder Woods Campground", "state": "PA", "campground_type": "Campground", "is_verified": false, "signal_score": 90, "carrier_count": 3, "remote_work_score": 96.0, "latitude": 40.3775245, "longitude": -75.4116276}, {"slug": "bowie", "campground_name": "Bowie", "state": "WI", "campground_type": "Private", "is_verified": false, "signal_score": 10, "carrier_count": 0, "remote_work_score": 20.3, "latitude": 45.3690496, "longitude": -88.9694043}, {"slug": "bowman-bridge-campground", "campground_name": "Bowman Bridge Campground", "state": "MI", "campground_type": "Campground", "is_verified": false, "signal_score": 10, "carrier_count": 0, "remote_work_score": 22.8, "latitude": 43.8888353, "longitude": -85.9436047}, {"slug": "bowman-lake-campground", "campground_name": "Bowman Lake Campground", "state": "MI", "campground_type": "National Forest", "is_verified": true, "signal_score": 10, "carrier_count": 0, "remote_work_score": 22.8, "latitude": 43.8913246, "longitude": -85.9678406}, {"slug": "boy-scout-camp", "campground_name": "Boy Scout Camp", "state": "WI", "campground_type": "Scout Camp", "is_verified": false, "signal_score": 10, "carrier_count": 0, "remote_work_score": 15.3, "latitude": 45.7609797, "longitude": -90.7728062}, {"slug": "boy-scout-camping-area", "campground_name": "Boy Scout Camping Area", "state": "PA", "campground_type": "Scout Camp", "is_verified": false, "signal_score": 90, "carrier_count": 3, "remote_work_score": 97.5, "latitude": 39.7407005, "longitude": -77.4763825}, {"slug": "boy-scouts-camp-barksdale", "campground_name": "Boy Scouts Camp Barksdale", "state": "WI", "campground_type": "Private", "is_verified": false, "signal_score": 40, "carrier_count": 1, "remote_work_score": 38.6, "latitude": 46.6179299, "longitude": -90.9324259}, {"slug": "boy-scouts-of-america-camp-fletcher", "campground_name": "Boy Scouts of America: Camp Fletcher", "state": "WI", "campground_type": "Scout Camp", "is_verified": false, "signal_score": 40, "carrier_count": 1, "remote_work_score": 61.1, "latitude": 44.5590362, "longitude": -89.514587}, {"slug": "boyd-s-mason-lake-resort", "campground_name": "Boyd's Mason Lake Resort", "state": "WI", "campground_type": "Private", "is_verified": false, "signal_score": 10, "carrier_count": 0, "remote_work_score": 15.3, "latitude": 45.8128829, "longitude": -90.6479357}, {"slug": "bp1-sandy-ledges-campsite", "campground_name": "BP1 - Sandy Ledges Campsite", "state": "WI", "campground_type": "Campground", "is_verified": false, "signal_score": 40, "carrier_count": 1, "remote_work_score": 37.1, "latitude": 46.3848506, "longitude": -90.6387765}, {"slug": "brandt-pines-backpack-campsite", "campground_name": "Brandt Pines Backpack Campsite", "state": "WI", "campground_type": "Campground", "is_verified": false, "signal_score": 40, "carrier_count": 1, "remote_work_score": 43.6, "latitude": 45.8667545, "longitude": -92.7268787}, {"slug": "brandywine-creek-campground", "campground_name": "Brandywine Creek Campground", "state": "PA", "campground_type": "Campground", "is_verified": false, "signal_score": 40, "carrier_count": 1, "remote_work_score": 61.1, "latitude": 40.0627544, "longitude": -75.7430275}, {"slug": "brasswire-campground", "campground_name": "Brasswire Campground", "state": "MI", "campground_type": "Campground", "is_verified": false, "signal_score": 40, "carrier_count": 1, "remote_work_score": 48.1, "latitude": 46.497061, "longitude": -87.6479816}, {"slug": "bray-creek-state-forest-campground", "campground_name": "Bray Creek State Forest Campground", "state": "MI", "campground_type": "State Forest", "is_verified": true, "signal_score": 10, "carrier_count": 0, "remote_work_score": 25.3, "latitude": 43.9146782, "longitude": -85.8244322}, {"slug": "breezy-hill-campground", "campground_name": "Breezy Hill Campground", "state": "WI", "campground_type": "Campground", "is_verified": false, "signal_score": 40, "carrier_count": 1, "remote_work_score": 61.1, "latitude": 43.6944249, "longitude": -88.4091791}, {"slug": "brevoort-lake-campground", "campground_name": "Brevoort Lake Campground", "state": "MI", "campground_type": "Campground", "is_verified": false, "signal_score": 70, "carrier_count": 2, "remote_work_score": 71.9, "latitude": 46.0099115, "longitude": -84.9709511}, {"slug": "brevoort-lake-campground-mi", "campground_name": "Brevoort Lake Campground", "state": "MI", "campground_type": "Campground", "is_verified": false, "signal_score": 70, "carrier_count": 2, "remote_work_score": 71.9, "latitude": 46.0091946, "longitude": -84.9782804}, {"slug": "briar-mountain-michaux-campsite-20", "campground_name": "Briar Mountain - Michaux Campsite #20", "state": "PA", "campground_type": "Campground", "is_verified": false, "signal_score": 90, "carrier_count": 3, "remote_work_score": 97.5, "latitude": 39.8095896, "longitude": -77.4850399}, {"slug": "bridger", "campground_name": "Bridger", "state": "WI", "campground_type": "Campground", "is_verified": false, "signal_score": 10, "carrier_count": 0, "remote_work_score": 20.3, "latitude": 45.3701787, "longitude": -88.9676776}, {"slug": "briggs-run-campsite", "campground_name": "Briggs Run Campsite", "state": "PA", "campground_type": "Campground", "is_verified": false, "signal_score": 70, "carrier_count": 2, "remote_work_score": 71.9, "latitude": 41.8106141, "longitude": -78.8859229}, {"slug": "brigham-county-park-campground", "campground_name": "Brigham County Park Campground", "state": "WI", "campground_type": "County Park", "is_verified": false, "signal_score": 70, "carrier_count": 2, "remote_work_score": 80.4, "latitude": 43.0275088, "longitude": -89.8155022}, {"slug": "britannia-faire", "campground_name": "Britannia Faire", "state": "OH", "campground_type": "Campground", "is_verified": false, "signal_score": 90, "carrier_count": 3, "remote_work_score": 85.0, "latitude": 39.8016429, "longitude": -81.1055761}, {"slug": "broken-bow-campground", "campground_name": "Broken Bow Campground", "state": "WI", "campground_type": "Campground", "is_verified": false, "signal_score": 90, "carrier_count": 3, "remote_work_score": 80.0, "latitude": 45.9232387, "longitude": -89.9523475}, {"slug": "brokenstraw-valley-campsites", "campground_name": "Brokenstraw Valley Campsites", "state": "PA", "campground_type": "Campground", "is_verified": false, "signal_score": 70, "carrier_count": 2, "remote_work_score": 71.9, "latitude": 41.8956382, "longitude": -79.4165893}, {"slug": "brookfest-acres", "campground_name": "Brookfest Acres", "state": "MI", "campground_type": "Campground", "is_verified": false, "signal_score": 90, "carrier_count": 3, "remote_work_score": 93.5, "latitude": 42.0770108, "longitude": -84.2435014}, {"slug": "brooklyn-trails", "campground_name": "Brooklyn Trails", "state": "MI", "campground_type": "Campground", "is_verified": false, "signal_score": 90, "carrier_count": 3, "remote_work_score": 93.5, "latitude": 42.0714158, "longitude": -84.2525611}, {"slug": "brower-park-campground", "campground_name": "Brower Park Campground", "state": "MI", "campground_type": "County Park", "is_verified": false, "signal_score": 40, "carrier_count": 1, "remote_work_score": 51.1, "latitude": 43.5613551, "longitude": -85.5488275}, {"slug": "brown-county-fairgrounds", "campground_name": "Brown County Fairgrounds", "state": "WI", "campground_type": "County Park", "is_verified": false, "signal_score": 40, "carrier_count": 1, "remote_work_score": 61.1, "latitude": 44.4608355, "longitude": -88.0696592}, {"slug": "bruce-village-park", "campground_name": "Bruce Village Park", "state": "WI", "campground_type": "Campground", "is_verified": false, "signal_score": 90, "carrier_count": 3, "remote_work_score": 85.0, "latitude": 45.4540585, "longitude": -91.2792862}, {"slug": "bruin-lake-campground", "campground_name": "Bruin Lake Campground", "state": "MI", "campground_type": "Campground", "is_verified": false, "signal_score": 70, "carrier_count": 2, "remote_work_score": 77.9, "latitude": 42.4214562, "longitude": -84.0430367}, {"slug": "brule-river-state-forest-hike-in", "campground_name": "Brule River State Forest Backcountry Camping", "state": "WI", "campground_type": "State Forest", "is_verified": true, "signal_score": 10, "carrier_count": 0, "remote_work_score": 28.8, "latitude": 46.6756644, "longitude": -91.5939524}, {"slug": "brunet-island-state-park-campground", "campground_name": "Brunet Island State Park Campground", "state": "WI", "campground_type": "State Park", "is_verified": true, "signal_score": 70, "carrier_count": 2, "remote_work_score": 75.4, "latitude": 45.1760387, "longitude": -91.1716818}, {"slug": "brush-lake-campground", "campground_name": "Brush Lake Campground", "state": "MI", "campground_type": "Campground", "is_verified": false, "signal_score": 70, "carrier_count": 2, "remote_work_score": 71.9, "latitude": 43.6394002, "longitude": -85.6898767}, {"slug": "bsa-camp-hart", "campground_name": "BSA Camp Hart", "state": "PA", "campground_type": "Campground", "is_verified": false, "signal_score": 90, "carrier_count": 3, "remote_work_score": 96.0, "latitude": 40.3643571, "longitude": -75.4258558}, {"slug": "buckaloons-campground", "campground_name": "Buckaloons Campground", "state": "PA", "campground_type": "Campground", "is_verified": false, "signal_score": 10, "carrier_count": 0, "remote_work_score": 27.8, "latitude": 41.8387531, "longitude": -79.2577535}, {"slug": "buckatabon-creek-campground", "campground_name": "Buckatabon Creek Campground", "state": "WI", "campground_type": "Campground", "is_verified": false, "signal_score": 40, "carrier_count": 1, "remote_work_score": 38.6, "latitude": 46.0260633, "longitude": -89.2913087}, {"slug": "buckhorn-primitive-camping-area", "campground_name": "Buckhorn Primitive Camping Area", "state": "PA", "campground_type": "National Park", "is_verified": true, "signal_score": 70, "carrier_count": 2, "remote_work_score": 71.9, "latitude": 41.4231647, "longitude": -74.7982797}, {"slug": "buckhorn-state-park-campground", "campground_name": "Buckhorn State Park Campground", "state": "WI", "campground_type": "State Park", "is_verified": true, "signal_score": 10, "carrier_count": 0, "remote_work_score": 25.3, "latitude": 43.9407539, "longitude": -90.0168495}, {"slug": "buffalo", "campground_name": "Buffalo", "state": "PA", "campground_type": "Campground", "is_verified": false, "signal_score": 90, "carrier_count": 3, "remote_work_score": 93.5, "latitude": 41.0494651, "longitude": -80.0086347}, {"slug": "buffalo-lake-campground", "campground_name": "Buffalo Lake Campground", "state": "WI", "campground_type": "State Forest", "is_verified": true, "signal_score": 10, "carrier_count": 0, "remote_work_score": 17.8, "latitude": 45.8775729, "longitude": -89.5633228}, {"slug": "buffalo-lake-camping-resort", "campground_name": "Buffalo Lake Camping Resort", "state": "WI", "campground_type": "Private", "is_verified": false, "signal_score": 10, "carrier_count": 0, "remote_work_score": 31.3, "latitude": 43.7933529, "longitude": -89.3441144}, {"slug": "burned-dam-campground", "campground_name": "Burned Dam Campground", "state": "WI", "campground_type": "Campground", "is_verified": false, "signal_score": 40, "carrier_count": 1, "remote_work_score": 37.1, "latitude": 46.3127515, "longitude": -89.0522738}, {"slug": "burning-heart-campground", "campground_name": "Burning Heart Campground", "state": "OH", "campground_type": "Campground", "is_verified": false, "signal_score": 90, "carrier_count": 3, "remote_work_score": 82.5, "latitude": 38.7429866, "longitude": -83.6203206}, {"slug": "burnt-cabins-grist-mill-campground", "campground_name": "Burnt Cabins Grist Mill & Campground", "state": "PA", "campground_type": "Campground", "is_verified": false, "signal_score": 90, "carrier_count": 3, "remote_work_score": 96.0, "latitude": 40.0767103, "longitude": -77.887378}, {"slug": "burnt-ridge-campground", "campground_name": "Burnt Ridge Campground", "state": "PA", "campground_type": "Campground", "is_verified": false, "signal_score": 10, "carrier_count": 0, "remote_work_score": 31.3, "latitude": 40.8836745, "longitude": -79.6147378}, {"slug": "burr-oak-cove-campground", "campground_name": "Burr Oak Cove Campground", "state": "OH", "campground_type": "Campground", "is_verified": false, "signal_score": 70, "carrier_count": 2, "remote_work_score": 77.9, "latitude": 39.5502793, "longitude": -82.0590881}, {"slug": "burr-oak-equestrian-camp", "campground_name": "Burr Oak Equestrian Camp", "state": "OH", "campground_type": "Campground", "is_verified": false, "signal_score": 70, "carrier_count": 2, "remote_work_score": 77.9, "latitude": 39.5444099, "longitude": -82.0401925}, {"slug": "burr-oak-state-park", "campground_name": "Burr Oak State Park", "state": "OH", "campground_type": "State Park", "is_verified": true, "signal_score": 70, "carrier_count": 2, "remote_work_score": 77.9, "latitude": 39.5436678, "longitude": -82.0325076}, {"slug": "burr-oak-state-park-campground", "campground_name": "Burr Oak State Park Campground", "state": "OH", "campground_type": "State Park", "is_verified": true, "signal_score": 70, "carrier_count": 2, "remote_work_score": 77.9, "latitude": 39.5377153, "longitude": -82.03347}, {"slug": "burr-oak-state-park-group-camp", "campground_name": "Burr Oak State Park Group Camp", "state": "OH", "campground_type": "State Park", "is_verified": true, "signal_score": 40, "carrier_count": 1, "remote_work_score": 54.6, "latitude": 39.5470085, "longitude": -82.0267163}, {"slug": "burt-lake-state-park", "campground_name": "Burt Lake State Park", "state": "MI", "campground_type": "State Park", "is_verified": true, "signal_score": 90, "carrier_count": 3, "remote_work_score": 85.0, "latitude": 45.4009604, "longitude": -84.62656}, {"slug": "burton-s-landing-state-forest-campground", "campground_name": "Burton's Landing State Forest Campground", "state": "MI", "campground_type": "State Forest", "is_verified": true, "signal_score": 70, "carrier_count": 2, "remote_work_score": 74.4, "latitude": 44.6617861, "longitude": -84.6456071}, {"slug": "butler", "campground_name": "Butler", "state": "OH", "campground_type": "Campground", "is_verified": false, "signal_score": 70, "carrier_count": 2, "remote_work_score": 77.9, "latitude": 41.6990978, "longitude": -84.675367}, {"slug": "buttercup-campground", "campground_name": "Buttercup Campground", "state": "MI", "campground_type": "National Forest", "is_verified": true, "signal_score": 10, "carrier_count": 0, "remote_work_score": 20.3, "latitude": 44.6411703, "longitude": -83.9135289}, {"slug": "buttercup-woodlands-campground", "campground_name": "Buttercup Woodlands Campground", "state": "PA", "campground_type": "Campground", "is_verified": false, "signal_score": 70, "carrier_count": 2, "remote_work_score": 84.4, "latitude": 40.8515567, "longitude": -79.9890968}, {"slug": "butternut", "campground_name": "Butternut", "state": "MI", "campground_type": "Campground", "is_verified": false, "signal_score": 90, "carrier_count": 3, "remote_work_score": 97.5, "latitude": 42.2053798, "longitude": -84.2482351}, {"slug": "buttersville-campground", "campground_name": "Buttersville Campground", "state": "MI", "campground_type": "Campground", "is_verified": false, "signal_score": 90, "carrier_count": 3, "remote_work_score": 90.0, "latitude": 43.934694, "longitude": -86.4508356}, {"slug": "buttonwood-campground", "campground_name": "Buttonwood Campground", "state": "PA", "campground_type": "Campground", "is_verified": false, "signal_score": 70, "carrier_count": 2, "remote_work_score": 80.4, "latitude": 40.5351547, "longitude": -77.3546733}, {"slug": "bv009-tower", "campground_name": "BV009 - Tower", "state": "PA", "campground_type": "Campground", "is_verified": false, "signal_score": 40, "carrier_count": 1, "remote_work_score": 54.6, "latitude": 39.9489601, "longitude": -77.9376409}, {"slug": "bv013-lincoln-trail", "campground_name": "BV013 - Lincoln Trail", "state": "PA", "campground_type": "Campground", "is_verified": false, "signal_score": 40, "carrier_count": 1, "remote_work_score": 54.6, "latitude": 39.927293, "longitude": -77.9528667}, {"slug": "bv014-route-75", "campground_name": "BV014 - Route 75", "state": "PA", "campground_type": "Campground", "is_verified": false, "signal_score": 40, "carrier_count": 1, "remote_work_score": 54.6, "latitude": 39.9497128, "longitude": -77.9132342}, {"slug": "bv020-tower-cco", "campground_name": "BV020 - Tower CCO", "state": "PA", "campground_type": "Campground", "is_verified": false, "signal_score": 40, "carrier_count": 1, "remote_work_score": 54.6, "latitude": 39.9362682, "longitude": -77.9479299}, {"slug": "cable-campground", "campground_name": "Cable Campground", "state": "WI", "campground_type": "Campground", "is_verified": false, "signal_score": 40, "carrier_count": 1, "remote_work_score": 43.6, "latitude": 46.206072, "longitude": -91.3032571}, {"slug": "cade-lake-county-park", "campground_name": "Cade Lake County Park", "state": "MI", "campground_type": "County Park", "is_verified": false, "signal_score": 90, "carrier_count": 3, "remote_work_score": 100, "latitude": 41.7969932, "longitude": -85.3672732}, {"slug": "caesar-creek-state-park-campground", "campground_name": "Caesar Creek State Park Campground", "state": "OH", "campground_type": "State Park", "is_verified": false, "signal_score": 90, "carrier_count": 3, "remote_work_score": 96.0, "latitude": 39.534052, "longitude": -83.9801904}, {"slug": "caesar-creek-state-park-campground-oh", "campground_name": "Caesar Creek State Park Campground", "state": "OH", "campground_type": "State Park", "is_verified": false, "signal_score": 90, "carrier_count": 3, "remote_work_score": 96.0, "latitude": 39.5354069, "longitude": -83.9841119}, {"slug": "caledonia-state-park-group-camping", "campground_name": "Caledonia State Park Group Camping", "state": "PA", "campground_type": "State Park", "is_verified": true, "signal_score": 90, "carrier_count": 3, "remote_work_score": 97.5, "latitude": 39.9113594, "longitude": -77.4708612}, {"slug": "calumet-county-park", "campground_name": "Calumet County Park", "state": "WI", "campground_type": "County Park", "is_verified": false, "signal_score": 40, "carrier_count": 1, "remote_work_score": 58.6, "latitude": 44.109144, "longitude": -88.322825}, {"slug": "camp-10-campground", "campground_name": "Camp 10 Campground", "state": "WI", "campground_type": "Campground", "is_verified": false, "signal_score": 10, "carrier_count": 0, "remote_work_score": 31.3, "latitude": 44.1519047, "longitude": -87.9398056}, {"slug": "camp-7-lake-campground", "campground_name": "Camp 7 Lake Campground", "state": "MI", "campground_type": "Campground", "is_verified": false, "signal_score": 40, "carrier_count": 1, "remote_work_score": 42.1, "latitude": 46.0586227, "longitude": -86.5492055}, {"slug": "camp-acahela", "campground_name": "Camp Acahela", "state": "PA", "campground_type": "Campground", "is_verified": false, "signal_score": 40, "carrier_count": 1, "remote_work_score": 57.1, "latitude": 41.1211429, "longitude": -75.6401233}, {"slug": "camp-agawam", "campground_name": "Camp Agawam", "state": "MI", "campground_type": "Campground", "is_verified": false, "signal_score": 40, "carrier_count": 1, "remote_work_score": 61.1, "latitude": 42.7625785, "longitude": -83.2693043}, {"slug": "camp-akita", "campground_name": "Camp Akita", "state": "OH", "campground_type": "Campground", "is_verified": false, "signal_score": 90, "carrier_count": 3, "remote_work_score": 96.0, "latitude": 39.6235394, "longitude": -82.4693499}, {"slug": "camp-alice-chester", "campground_name": "Camp Alice Chester", "state": "WI", "campground_type": "Campground", "is_verified": false, "signal_score": 70, "carrier_count": 2, "remote_work_score": 80.4, "latitude": 42.8058915, "longitude": -88.4244677}, {"slug": "camp-ammon", "campground_name": "Camp Ammon", "state": "MI", "campground_type": "Campground", "is_verified": false, "signal_score": 40, "carrier_count": 1, "remote_work_score": 61.1, "latitude": 43.0238241, "longitude": -88.0091221}, {"slug": "camp-amnicon", "campground_name": "Camp Amnicon", "state": "WI", "campground_type": "Campground", "is_verified": false, "signal_score": 40, "carrier_count": 1, "remote_work_score": 54.6, "latitude": 46.6839946, "longitude": -91.8276211}, {"slug": "camp-andrews", "campground_name": "Camp Andrews", "state": "PA", "campground_type": "Campground", "is_verified": false, "signal_score": 90, "carrier_count": 3, "remote_work_score": 93.5, "latitude": 39.8404326, "longitude": -76.253607}, {"slug": "camp-anokijig", "campground_name": "Camp Anokijig", "state": "WI", "campground_type": "Campground", "is_verified": false, "signal_score": 10, "carrier_count": 0, "remote_work_score": 31.3, "latitude": 43.8097098, "longitude": -87.9715874}, {"slug": "camp-archbald", "campground_name": "Camp Archbald", "state": "PA", "campground_type": "Campground", "is_verified": false, "signal_score": 90, "carrier_count": 3, "remote_work_score": 87.5, "latitude": 41.7628658, "longitude": -75.8290163}, {"slug": "camp-asbury", "campground_name": "Camp Asbury", "state": "OH", "campground_type": "Campground", "is_verified": false, "signal_score": 40, "carrier_count": 1, "remote_work_score": 61.1, "latitude": 41.2846475, "longitude": -81.1603848}, {"slug": "camp-awana", "campground_name": "Camp Awana", "state": "WI", "campground_type": "Campground", "is_verified": false, "signal_score": 10, "carrier_count": 0, "remote_work_score": 35.3, "latitude": 43.5187579, "longitude": -88.0455309}, {"slug": "camp-balsams", "campground_name": "Camp Balsams", "state": "WI", "campground_type": "Private", "is_verified": false, "signal_score": 40, "carrier_count": 1, "remote_work_score": 38.6, "latitude": 45.930626, "longitude": -89.1301102}, {"slug": "camp-barakel", "campground_name": "Camp Barakel", "state": "MI", "campground_type": "Campground", "is_verified": false, "signal_score": 90, "carrier_count": 3, "remote_work_score": 82.5, "latitude": 44.7327343, "longitude": -83.9473765}, {"slug": "camp-beckoning-trails", "campground_name": "Camp Beckoning Trails", "state": "OH", "campground_type": "Private", "is_verified": false, "signal_score": 90, "carrier_count": 3, "remote_work_score": 96.0, "latitude": 39.5155336, "longitude": -82.3920484}, {"slug": "camp-beechpoint", "campground_name": "Camp Beechpoint", "state": "MI", "campground_type": "Campground", "is_verified": false, "signal_score": 90, "carrier_count": 3, "remote_work_score": 93.5, "latitude": 42.5972222, "longitude": -85.8638889}, {"slug": "camp-berry", "campground_name": "Camp Berry", "state": "OH", "campground_type": "Private", "is_verified": false, "signal_score": 40, "carrier_count": 1, "remote_work_score": 61.1, "latitude": 40.9609935, "longitude": -83.6569713}, {"slug": "camp-big-springs", "campground_name": "Camp Big Springs", "state": "PA", "campground_type": "Campground", "is_verified": false, "signal_score": 90, "carrier_count": 3, "remote_work_score": 87.5, "latitude": 41.1056489, "longitude": -75.0902206}, {"slug": "camp-birch-trails", "campground_name": "Camp Birch Trails", "state": "WI", "campground_type": "Campground", "is_verified": false, "signal_score": 40, "carrier_count": 1, "remote_work_score": 54.6, "latitude": 45.2995346, "longitude": -89.7231683}, {"slug": "camp-birchrock", "campground_name": "Camp Birchrock", "state": "WI", "campground_type": "Campground", "is_verified": false, "signal_score": 40, "carrier_count": 1, "remote_work_score": 48.6, "latitude": 45.6520454, "longitude": -89.5089152}, {"slug": "camp-black-hawk", "campground_name": "Camp Black Hawk", "state": "WI", "campground_type": "Campground", "is_verified": false, "signal_score": 70, "carrier_count": 2, "remote_work_score": 69.4, "latitude": 45.1215027, "longitude": -88.8989078}, {"slug": "camp-blackhawk", "campground_name": "Camp Blackhawk", "state": "MI", "campground_type": "Campground", "is_verified": false, "signal_score": 40, "carrier_count": 1, "remote_work_score": 54.6, "latitude": 43.4504133, "longitude": -86.211719},