[{"slug": "064-baker-branch", "campground_name": "064 Baker Branch", "state": "PA", "campground_type": "Campground", "is_verified": false, "signal_score": 40, "signal_quality_score": 30, "carrier_count": 1, "remote_work_score": 37.0, "latitude": 41.7965876, "longitude": -77.47966, "verizon_coverage": true, "att_coverage": false, "tmobile_coverage": false}, {"slug": "1994-osr-trail-site-camp-splinter", "campground_name": "1994 OSR Trail Site - Camp Splinter", "state": "MI", "campground_type": "Campground", "is_verified": false, "signal_score": 10, "signal_quality_score": 10, "carrier_count": 0, "remote_work_score": 26.0, "latitude": 43.4851123, "longitude": -86.1810738, "verizon_coverage": false, "att_coverage": false, "tmobile_coverage": false}, {"slug": "4-seasons-campground", "campground_name": "4 Seasons Campground", "state": "MI", "campground_type": "Campground", "is_verified": false, "signal_score": 10, "signal_quality_score": 10, "carrier_count": 0, "remote_work_score": 20.0, "latitude": 44.0585213, "longitude": -85.7185563, "verizon_coverage": false, "att_coverage": false, "tmobile_coverage": false}, {"slug": "4-h-camp-clifton", "campground_name": "4-H Camp Clifton", "state": "OH", "campground_type": "Private", "is_verified": false, "signal_score": 90, "signal_quality_score": 90, "carrier_count": 3, "remote_work_score": 85.0, "latitude": 39.78876, "longitude": -83.841707, "verizon_coverage": true, "att_coverage": true, "tmobile_coverage": true}, {"slug": "4-h-camp-palmer", "campground_name": "4-H Camp Palmer", "state": "OH", "campground_type": "Campground", "is_verified": false, "signal_score": 90, "signal_quality_score": 95, "carrier_count": 3, "remote_work_score": 79.5, "latitude": 41.6460875, "longitude": -84.3706954, "verizon_coverage": true, "att_coverage": true, "tmobile_coverage": true}, {"slug": "4-mile-trail-camp", "campground_name": "4-Mile Trail Camp", "state": "MI", "campground_type": "Campground", "is_verified": false, "signal_score": 90, "signal_quality_score": 90, "carrier_count": 3, "remote_work_score": 75.5, "latitude": 44.5977711, "longitude": -84.6217398, "verizon_coverage": true, "att_coverage": true, "tmobile_coverage": true}, {"slug": "45th-parallel-back-country-campground", "campground_name": "45th Parallel Back Country Campground", "state": "MI", "campground_type": "Campground", "is_verified": false, "signal_score": 70, "signal_quality_score": 75, "carrier_count": 2, "remote_work_score": 62.0, "latitude": 44.9773541, "longitude": -84.957093, "verizon_coverage": true, "att_coverage": true, "tmobile_coverage": false}, {"slug": "abc-country-camping-and-cabins", "campground_name": "ABC Country Camping and Cabins", "state": "OH", "campground_type": "Campground", "is_verified": false, "signal_score": 40, "signal_quality_score": 50, "carrier_count": 1, "remote_work_score": 45.0, "latitude": 40.6016677, "longitude": -81.1753029, "verizon_coverage": true, "att_coverage": false, "tmobile_coverage": false}, {"slug": "ada-lake-campground", "campground_name": "Ada Lake Campground", "state": "WI", "campground_type": "National Forest", "is_verified": true, "signal_score": 10, "signal_quality_score": 10, "carrier_count": 0, "remote_work_score": 12.5, "latitude": 45.3694115, "longitude": -88.7317749, "verizon_coverage": false, "att_coverage": false, "tmobile_coverage": false}, {"slug": "adams-county-castle-rock", "campground_name": "Adams County Castle Rock", "state": "WI", "campground_type": "County Park", "is_verified": false, "signal_score": 10, "signal_quality_score": 10, "carrier_count": 0, "remote_work_score": 22.0, "latitude": 43.9096188, "longitude": -89.9397216, "verizon_coverage": false, "att_coverage": false, "tmobile_coverage": false}, {"slug": "adventure-bound-camping-resort-oak-creek", "campground_name": "Adventure Bound Camping Resort Oak Creek", "state": "PA", "campground_type": "Private", "is_verified": false, "signal_score": 90, "signal_quality_score": 95, "carrier_count": 3, "remote_work_score": 86.5, "latitude": 40.1996265, "longitude": -75.9856995, "verizon_coverage": true, "att_coverage": true, "tmobile_coverage": true}, {"slug": "adventure-bound-camping-resorts-shenango-valley", "campground_name": "Adventure Bound Camping Resorts - Shenango Valley", "state": "PA", "campground_type": "Private", "is_verified": false, "signal_score": 70, "signal_quality_score": 70, "carrier_count": 2, "remote_work_score": 69.0, "latitude": 41.3357474, "longitude": -80.3757085, "verizon_coverage": true, "att_coverage": true, "tmobile_coverage": false}, {"slug": "adventure-bound-eagles-peak-campground", "campground_name": "Adventure Bound Eagles Peak Campground", "state": "PA", "campground_type": "Campground", "is_verified": false, "signal_score": 90, "signal_quality_score": 95, "carrier_count": 3, "remote_work_score": 82.0, "latitude": 40.3329268, "longitude": -76.1796526, "verizon_coverage": true, "att_coverage": true, "tmobile_coverage": true}, {"slug": "ahmeek-coppermine-camp", "campground_name": "Ahmeek Coppermine Camp", "state": "MI", "campground_type": "Campground", "is_verified": false, "signal_score": 40, "signal_quality_score": 50, "carrier_count": 1, "remote_work_score": 32.5, "latitude": 47.3019271, "longitude": -88.3750318, "verizon_coverage": true, "att_coverage": false, "tmobile_coverage": false}, {"slug": "aikens-cabins-at-bear-meadows", "campground_name": "Aikens Cabins at Bear Meadows", "state": "PA", "campground_type": "Campground", "is_verified": false, "signal_score": 90, "signal_quality_score": 95, "carrier_count": 3, "remote_work_score": 86.5, "latitude": 40.7682282, "longitude": -77.7572973, "verizon_coverage": true, "att_coverage": true, "tmobile_coverage": true}, {"slug": "akela-s-world", "campground_name": "Akela\u2019s World", "state": "WI", "campground_type": "Campground", "is_verified": false, "signal_score": 40, "signal_quality_score": 40, "carrier_count": 1, "remote_work_score": 37.0, "latitude": 45.7160619, "longitude": -89.4205975, "verizon_coverage": true, "att_coverage": false, "tmobile_coverage": false}, {"slug": "alcona-canoe-rental-campground", "campground_name": "Alcona Canoe Rental & Campground", "state": "MI", "campground_type": "Campground", "is_verified": false, "signal_score": 40, "signal_quality_score": 40, "carrier_count": 1, "remote_work_score": 39.0, "latitude": 44.5627497, "longitude": -83.780558, "verizon_coverage": true, "att_coverage": false, "tmobile_coverage": false}, {"slug": "alder", "campground_name": "Alder", "state": "WI", "campground_type": "Campground", "is_verified": false, "signal_score": 90, "signal_quality_score": 95, "carrier_count": 3, "remote_work_score": 88.0, "latitude": 42.5048704, "longitude": -88.168392, "verizon_coverage": true, "att_coverage": true, "tmobile_coverage": true}, {"slug": "alder-canoe-1", "campground_name": "Alder Canoe 1", "state": "WI", "campground_type": "State Park", "is_verified": true, "signal_score": 40, "signal_quality_score": 30, "carrier_count": 1, "remote_work_score": 35.0, "latitude": 46.0933759, "longitude": -89.822854, "verizon_coverage": true, "att_coverage": false, "tmobile_coverage": false}, {"slug": "algonac-modern-wagon-wheel-campground", "campground_name": "Algonac State Park", "state": "MI", "campground_type": "State Park", "is_verified": true, "signal_score": 70, "signal_quality_score": 75, "carrier_count": 2, "remote_work_score": 66.0, "latitude": 42.6565211, "longitude": -82.5231797, "verizon_coverage": true, "att_coverage": true, "tmobile_coverage": false}, {"slug": "algonac-modern-riverfront-campground", "campground_name": "Algonac State Park - Riverfront Campground", "state": "MI", "campground_type": "State Park", "is_verified": true, "signal_score": 70, "signal_quality_score": 75, "carrier_count": 2, "remote_work_score": 66.0, "latitude": 42.6530626, "longitude": -82.5156726, "verizon_coverage": true, "att_coverage": true, "tmobile_coverage": false}, {"slug": "all-saints-camp", "campground_name": "All Saints Camp", "state": "PA", "campground_type": "Campground", "is_verified": false, "signal_score": 70, "signal_quality_score": 70, "carrier_count": 2, "remote_work_score": 65.5, "latitude": 41.2276551, "longitude": -79.7269694, "verizon_coverage": false, "att_coverage": true, "tmobile_coverage": true}, {"slug": "allegheny-river-campground", "campground_name": "Allegheny River Campground", "state": "PA", "campground_type": "Campground", "is_verified": false, "signal_score": 90, "signal_quality_score": 95, "carrier_count": 3, "remote_work_score": 74.0, "latitude": 41.7609209, "longitude": -78.1170798, "verizon_coverage": true, "att_coverage": true, "tmobile_coverage": true}, {"slug": "alleghenyn-i-80-campground", "campground_name": "Alleghenyn I-80 Campground", "state": "PA", "campground_type": "Campground", "is_verified": false, "signal_score": 70, "signal_quality_score": 75, "carrier_count": 2, "remote_work_score": 67.0, "latitude": 41.1793976, "longitude": -79.7456722, "verizon_coverage": false, "att_coverage": true, "tmobile_coverage": true}, {"slug": "aloha-state-park-campground", "campground_name": "Aloha State Park Campground", "state": "MI", "campground_type": "State Park", "is_verified": false, "signal_score": 10, "signal_quality_score": 10, "carrier_count": 0, "remote_work_score": 18.0, "latitude": 45.5180998, "longitude": -84.4649798, "verizon_coverage": false, "att_coverage": false, "tmobile_coverage": false}, {"slug": "alpena-crtc-campground", "campground_name": "Alpena CRTC Campground", "state": "MI", "campground_type": "Private", "is_verified": false, "signal_score": 90, "signal_quality_score": 90, "carrier_count": 3, "remote_work_score": 79.5, "latitude": 45.0820404, "longitude": -83.5745275, "verizon_coverage": true, "att_coverage": true, "tmobile_coverage": true}, {"slug": "alum-creek-state-park", "campground_name": "Alum Creek State Park", "state": "OH", "campground_type": "State Park", "is_verified": true, "signal_score": 90, "signal_quality_score": 95, "carrier_count": 3, "remote_work_score": 86.5, "latitude": 40.19167, "longitude": -82.97306, "verizon_coverage": true, "att_coverage": true, "tmobile_coverage": true}, {"slug": "alum-creek-state-park-campground", "campground_name": "Alum Creek State Park Campground", "state": "OH", "campground_type": "State Park", "is_verified": true, "signal_score": 90, "signal_quality_score": 95, "carrier_count": 3, "remote_work_score": 86.5, "latitude": 40.2386717, "longitude": -82.9815849, "verizon_coverage": true, "att_coverage": true, "tmobile_coverage": true}, {"slug": "alverthorpe-park-campground", "campground_name": "Alverthorpe Park Campground", "state": "PA", "campground_type": "Campground", "is_verified": false, "signal_score": 90, "signal_quality_score": 95, "carrier_count": 3, "remote_work_score": 86.5, "latitude": 40.0894758, "longitude": -75.1154916, "verizon_coverage": true, "att_coverage": true, "tmobile_coverage": true}, {"slug": "ambrose-lake-state-forest-campground", "campground_name": "Ambrose Lake State Forest Campground", "state": "MI", "campground_type": "State Forest", "is_verified": true, "signal_score": 40, "signal_quality_score": 40, "carrier_count": 1, "remote_work_score": 39.0, "latitude": 44.4071931, "longitude": -84.2564149, "verizon_coverage": false, "att_coverage": true, "tmobile_coverage": false}, {"slug": "american-resort-and-campground", "campground_name": "American Resort and Campground", "state": "WI", "campground_type": "Private", "is_verified": false, "signal_score": 90, "signal_quality_score": 95, "carrier_count": 3, "remote_work_score": 83.5, "latitude": 43.6190271, "longitude": -89.7817446, "verizon_coverage": true, "att_coverage": true, "tmobile_coverage": true}, {"slug": "amigo-park", "campground_name": "Amigo Park", "state": "MI", "campground_type": "Campground", "is_verified": false, "signal_score": 90, "signal_quality_score": 90, "carrier_count": 3, "remote_work_score": 88.0, "latitude": 41.8653192, "longitude": -85.4301022, "verizon_coverage": true, "att_coverage": true, "tmobile_coverage": true}, {"slug": "amnicon-falls-state-park-campground", "campground_name": "Amnicon Falls State Park", "state": "WI", "campground_type": "State Park", "is_verified": true, "signal_score": 90, "signal_quality_score": 95, "carrier_count": 3, "remote_work_score": 80.0, "latitude": 46.6089144, "longitude": -91.8926218, "verizon_coverage": true, "att_coverage": true, "tmobile_coverage": true}, {"slug": "anderson-cabins-camping", "campground_name": "Anderson Cabins & Camping", "state": "WI", "campground_type": "Campground", "is_verified": false, "signal_score": 10, "signal_quality_score": 10, "carrier_count": 0, "remote_work_score": 22.0, "latitude": 43.8188524, "longitude": -89.0293984, "verizon_coverage": false, "att_coverage": false, "tmobile_coverage": false}, {"slug": "anderson-lake-west-state-forest-campground", "campground_name": "Anderson Lake West State Forest Campground", "state": "MI", "campground_type": "State Forest", "is_verified": true, "signal_score": 40, "signal_quality_score": 40, "carrier_count": 1, "remote_work_score": 36.5, "latitude": 46.2240501, "longitude": -87.493936, "verizon_coverage": false, "att_coverage": true, "tmobile_coverage": false}, {"slug": "andrus-lake-state-forest-campground", "campground_name": "Andrus Lake State Forest Campground", "state": "MI", "campground_type": "State Forest", "is_verified": true, "signal_score": 40, "signal_quality_score": 40, "carrier_count": 1, "remote_work_score": 39.0, "latitude": 46.7024552, "longitude": -85.0378627, "verizon_coverage": false, "att_coverage": true, "tmobile_coverage": false}, {"slug": "angel-cove-park", "campground_name": "Angel Cove Park", "state": "MI", "campground_type": "County Park", "is_verified": false, "signal_score": 70, "signal_quality_score": 70, "carrier_count": 2, "remote_work_score": 75.5, "latitude": 42.0080045, "longitude": -85.037693, "verizon_coverage": true, "att_coverage": true, "tmobile_coverage": false}, {"slug": "antiochian-village-camp", "campground_name": "Antiochian Village Camp", "state": "PA", "campground_type": "Campground", "is_verified": false, "signal_score": 70, "signal_quality_score": 70, "carrier_count": 2, "remote_work_score": 66.0, "latitude": 40.3029708, "longitude": -79.1500826, "verizon_coverage": true, "att_coverage": true, "tmobile_coverage": false}, {"slug": "anvil-lake-recreation-area", "campground_name": "Anvil Lake Recreation Area", "state": "WI", "campground_type": "Campground", "is_verified": false, "signal_score": 40, "signal_quality_score": 30, "carrier_count": 1, "remote_work_score": 33.5, "latitude": 45.9373667, "longitude": -89.0594608, "verizon_coverage": true, "att_coverage": false, "tmobile_coverage": false}, {"slug": "apache", "campground_name": "Apache", "state": "MI", "campground_type": "Campground", "is_verified": false, "signal_score": 10, "signal_quality_score": 10, "carrier_count": 0, "remote_work_score": 26.0, "latitude": 43.4438839, "longitude": -86.1903629, "verizon_coverage": false, "att_coverage": false, "tmobile_coverage": false}, {"slug": "apache-wi", "campground_name": "Apache", "state": "WI", "campground_type": "Campground", "is_verified": false, "signal_score": 10, "signal_quality_score": 10, "carrier_count": 0, "remote_work_score": 20.0, "latitude": 44.1524925, "longitude": -89.1493749, "verizon_coverage": false, "att_coverage": false, "tmobile_coverage": false}, {"slug": "apache-wi-2", "campground_name": "Apache", "state": "WI", "campground_type": "Campground", "is_verified": false, "signal_score": 10, "signal_quality_score": 10, "carrier_count": 0, "remote_work_score": 22.0, "latitude": 43.9008589, "longitude": -89.989505, "verizon_coverage": false, "att_coverage": false, "tmobile_coverage": false}, {"slug": "apostle-islands-area-campground", "campground_name": "Apostle Islands Area Campground", "state": "WI", "campground_type": "Campground", "is_verified": false, "signal_score": 70, "signal_quality_score": 75, "carrier_count": 2, "remote_work_score": 54.5, "latitude": 46.804578, "longitude": -90.8366846, "verizon_coverage": true, "att_coverage": true, "tmobile_coverage": false}, {"slug": "appalachian-campground", "campground_name": "Appalachian Campground", "state": "PA", "campground_type": "Campground", "is_verified": false, "signal_score": 90, "signal_quality_score": 95, "carrier_count": 3, "remote_work_score": 85.0, "latitude": 40.5170981, "longitude": -76.1194124, "verizon_coverage": true, "att_coverage": true, "tmobile_coverage": true}, {"slug": "apple-river-family-campground", "campground_name": "Apple River Family Campground", "state": "WI", "campground_type": "Campground", "is_verified": false, "signal_score": 40, "signal_quality_score": 40, "carrier_count": 1, "remote_work_score": 48.0, "latitude": 45.1317958, "longitude": -92.6776803, "verizon_coverage": true, "att_coverage": false, "tmobile_coverage": false}, {"slug": "apple-river-park-campground", "campground_name": "Apple River Park & Campground", "state": "WI", "campground_type": "Campground", "is_verified": false, "signal_score": 10, "signal_quality_score": 10, "carrier_count": 0, "remote_work_score": 22.0, "latitude": 45.3873679, "longitude": -92.3712746, "verizon_coverage": false, "att_coverage": false, "tmobile_coverage": false}, {"slug": "appleton-lake-rustic-campground", "campground_name": "Appleton Lake Rustic Campground", "state": "MI", "campground_type": "Campground", "is_verified": false, "signal_score": 70, "signal_quality_score": 75, "carrier_count": 2, "remote_work_score": 72.5, "latitude": 42.5068045, "longitude": -83.8344115, "verizon_coverage": true, "att_coverage": true, "tmobile_coverage": false}, {"slug": "aqualand-campground", "campground_name": "Aqualand Campground", "state": "WI", "campground_type": "Campground", "is_verified": false, "signal_score": 40, "signal_quality_score": 50, "carrier_count": 1, "remote_work_score": 39.0, "latitude": 45.1545197, "longitude": -87.126503, "verizon_coverage": true, "att_coverage": false, "tmobile_coverage": false}, {"slug": "aquila", "campground_name": "Aquila", "state": "MI", "campground_type": "Campground", "is_verified": false, "signal_score": 10, "signal_quality_score": 10, "carrier_count": 0, "remote_work_score": 26.0, "latitude": 43.4438839, "longitude": -86.186837, "verizon_coverage": false, "att_coverage": false, "tmobile_coverage": false}, {"slug": "arapahoe", "campground_name": "Arapahoe", "state": "WI", "campground_type": "Campground", "is_verified": false, "signal_score": 40, "signal_quality_score": 30, "carrier_count": 1, "remote_work_score": 37.0, "latitude": 45.6928985, "longitude": -91.7067696, "verizon_coverage": true, "att_coverage": false, "tmobile_coverage": false}, {"slug": "arapahoe-wi", "campground_name": "Arapahoe", "state": "WI", "campground_type": "Campground", "is_verified": false, "signal_score": 70, "signal_quality_score": 70, "carrier_count": 2, "remote_work_score": 72.5, "latitude": 44.0553164, "longitude": -91.2820562, "verizon_coverage": false, "att_coverage": true, "tmobile_coverage": true}, {"slug": "arbutus-number-four-state-forest-campground", "campground_name": "Arbutus Lake State Forest Campground", "state": "MI", "campground_type": "State Forest", "is_verified": true, "signal_score": 70, "signal_quality_score": 75, "carrier_count": 2, "remote_work_score": 67.0, "latitude": 44.67272, "longitude": -85.5222759, "verizon_coverage": false, "att_coverage": true, "tmobile_coverage": true}, {"slug": "armenia-mountain-campground", "campground_name": "Armenia Mountain Campground", "state": "PA", "campground_type": "Campground", "is_verified": false, "signal_score": 40, "signal_quality_score": 40, "carrier_count": 1, "remote_work_score": 41.0, "latitude": 41.7528316, "longitude": -76.872392, "verizon_coverage": true, "att_coverage": false, "tmobile_coverage": false}, {"slug": "army-lake-camp", "campground_name": "Army Lake Camp", "state": "WI", "campground_type": "Campground", "is_verified": false, "signal_score": 90, "signal_quality_score": 95, "carrier_count": 3, "remote_work_score": 85.0, "latitude": 42.8118979, "longitude": -88.3781907, "verizon_coverage": true, "att_coverage": true, "tmobile_coverage": true}, {"slug": "arrowhead-bible-camp", "campground_name": "Arrowhead Bible Camp", "state": "WI", "campground_type": "Campground", "is_verified": false, "signal_score": 10, "signal_quality_score": 10, "carrier_count": 0, "remote_work_score": 22.0, "latitude": 45.2884782, "longitude": -91.4453223, "verizon_coverage": false, "att_coverage": false, "tmobile_coverage": false}, {"slug": "arrowhead-lakes-resort", "campground_name": "Arrowhead Lakes Resort", "state": "OH", "campground_type": "Private", "is_verified": false, "signal_score": 90, "signal_quality_score": 90, "carrier_count": 3, "remote_work_score": 85.0, "latitude": 40.5594021, "longitude": -84.1621365, "verizon_coverage": true, "att_coverage": true, "tmobile_coverage": true}, {"slug": "artillery-ridge-campground-gettysburg-horse-park", "campground_name": "Artillery Ridge Campground & Gettysburg Horse Park", "state": "PA", "campground_type": "Campground", "is_verified": false, "signal_score": 90, "signal_quality_score": 95, "carrier_count": 3, "remote_work_score": 83.5, "latitude": 39.8015861, "longitude": -77.2260474, "verizon_coverage": true, "att_coverage": true, "tmobile_coverage": true}, {"slug": "aspen", "campground_name": "Aspen", "state": "WI", "campground_type": "Campground", "is_verified": false, "signal_score": 90, "signal_quality_score": 95, "carrier_count": 3, "remote_work_score": 88.0, "latitude": 42.5073582, "longitude": -88.1705064, "verizon_coverage": true, "att_coverage": true, "tmobile_coverage": true}, {"slug": "aspen-glen", "campground_name": "Aspen Glen", "state": "OH", "campground_type": "Campground", "is_verified": false, "signal_score": 90, "signal_quality_score": 90, "carrier_count": 3, "remote_work_score": 82.0, "latitude": 41.6891141, "longitude": -80.8791259, "verizon_coverage": true, "att_coverage": true, "tmobile_coverage": true}, {"slug": "association-retreat-center", "campground_name": "Association Retreat Center", "state": "WI", "campground_type": "Campground", "is_verified": false, "signal_score": 40, "signal_quality_score": 30, "carrier_count": 1, "remote_work_score": 45.0, "latitude": 45.2514076, "longitude": -92.6417366, "verizon_coverage": true, "att_coverage": false, "tmobile_coverage": false}, {"slug": "astico-county-park-campground", "campground_name": "Astico County Park Campground", "state": "WI", "campground_type": "County Park", "is_verified": false, "signal_score": 90, "signal_quality_score": 95, "carrier_count": 3, "remote_work_score": 83.5, "latitude": 43.3272141, "longitude": -88.9514678, "verizon_coverage": true, "att_coverage": true, "tmobile_coverage": true}, {"slug": "atwood", "campground_name": "Atwood", "state": "OH", "campground_type": "Campground", "is_verified": false, "signal_score": 40, "signal_quality_score": 40, "carrier_count": 1, "remote_work_score": 47.0, "latitude": 40.5443394, "longitude": -81.2645548, "verizon_coverage": true, "att_coverage": false, "tmobile_coverage": false}, {"slug": "atwood-lake-campground-main-gate", "campground_name": "Atwood Lake Campground (main gate)", "state": "OH", "campground_type": "Campground", "is_verified": false, "signal_score": 40, "signal_quality_score": 40, "carrier_count": 1, "remote_work_score": 50.0, "latitude": 40.544736, "longitude": -81.2699707, "verizon_coverage": true, "att_coverage": false, "tmobile_coverage": false}, {"slug": "au-sable-east-group-campground", "campground_name": "Au Sable East Group Campground", "state": "MI", "campground_type": "Campground", "is_verified": false, "signal_score": 40, "signal_quality_score": 30, "carrier_count": 1, "remote_work_score": 32.5, "latitude": 46.6710834, "longitude": -86.1362309, "verizon_coverage": true, "att_coverage": false, "tmobile_coverage": false}, {"slug": "au-sable-loop-campground", "campground_name": "Au Sable Loop Campground", "state": "MI", "campground_type": "National Forest", "is_verified": true, "signal_score": 40, "signal_quality_score": 50, "carrier_count": 1, "remote_work_score": 35.0, "latitude": 44.65199, "longitude": -84.1004893, "verizon_coverage": false, "att_coverage": true, "tmobile_coverage": false}, {"slug": "au-sable-point-campground", "campground_name": "Au Sable Point Campground", "state": "MI", "campground_type": "Campground", "is_verified": false, "signal_score": 10, "signal_quality_score": 10, "carrier_count": 0, "remote_work_score": 11.5, "latitude": 46.6427429, "longitude": -86.2107225, "verizon_coverage": false, "att_coverage": false, "tmobile_coverage": false}, {"slug": "au-train-lake-campground", "campground_name": "Au Train Lake Campground", "state": "MI", "campground_type": "National Forest", "is_verified": true, "signal_score": 40, "signal_quality_score": 50, "carrier_count": 1, "remote_work_score": 36.5, "latitude": 46.3938798, "longitude": -86.8357585, "verizon_coverage": false, "att_coverage": true, "tmobile_coverage": false}, {"slug": "ausable-river-state-forest-campground-and-canoe-camp", "campground_name": "AuSable River State Forest Campground and Canoe Camp", "state": "MI", "campground_type": "State Forest", "is_verified": true, "signal_score": 90, "signal_quality_score": 95, "carrier_count": 3, "remote_work_score": 75.5, "latitude": 44.6655641, "longitude": -84.6588487, "verizon_coverage": true, "att_coverage": true, "tmobile_coverage": true}, {"slug": "austin-campground", "campground_name": "Austin Campground", "state": "PA", "campground_type": "Campground", "is_verified": false, "signal_score": 90, "signal_quality_score": 90, "carrier_count": 3, "remote_work_score": 74.0, "latitude": 41.568454, "longitude": -78.0200532, "verizon_coverage": true, "att_coverage": true, "tmobile_coverage": true}, {"slug": "avery-lake-state-forest-campground", "campground_name": "Avery Lake State Forest Campground", "state": "MI", "campground_type": "State Forest", "is_verified": true, "signal_score": 40, "signal_quality_score": 50, "carrier_count": 1, "remote_work_score": 39.0, "latitude": 44.9322672, "longitude": -84.1876192, "verizon_coverage": false, "att_coverage": true, "tmobile_coverage": false}, {"slug": "avoca-lakeside-city-campground", "campground_name": "Avoca Lakeside City Campground", "state": "WI", "campground_type": "Campground", "is_verified": false, "signal_score": 40, "signal_quality_score": 30, "carrier_count": 1, "remote_work_score": 41.0, "latitude": 43.1899231, "longitude": -90.3185725, "verizon_coverage": true, "att_coverage": false, "tmobile_coverage": false}, {"slug": "b-bar-m-campground", "campground_name": "B Bar M Campground", "state": "PA", "campground_type": "Campground", "is_verified": false, "signal_score": 90, "signal_quality_score": 95, "carrier_count": 3, "remote_work_score": 82.0, "latitude": 41.2026226, "longitude": -78.5732684, "verizon_coverage": true, "att_coverage": true, "tmobile_coverage": true}, {"slug": "babb-s-island-camp", "campground_name": "Babb's Island Camp", "state": "WI", "campground_type": "State Park", "is_verified": false, "signal_score": 10, "signal_quality_score": 10, "carrier_count": 0, "remote_work_score": 12.5, "latitude": 45.7694473, "longitude": -90.7547694, "verizon_coverage": false, "att_coverage": false, "tmobile_coverage": false}, {"slug": "babcock-county-park-campground", "campground_name": "Babcock County Park Campground", "state": "WI", "campground_type": "County Park", "is_verified": false, "signal_score": 90, "signal_quality_score": 95, "carrier_count": 3, "remote_work_score": 86.5, "latitude": 43.0115185, "longitude": -89.3039945, "verizon_coverage": true, "att_coverage": true, "tmobile_coverage": true}, {"slug": "backyard-burdickville", "campground_name": "Backyard Burdickville", "state": "MI", "campground_type": "Campground", "is_verified": false, "signal_score": 40, "signal_quality_score": 40, "carrier_count": 1, "remote_work_score": 43.0, "latitude": 44.8056787, "longitude": -85.9319309, "verizon_coverage": true, "att_coverage": false, "tmobile_coverage": false}, {"slug": "baden-powell", "campground_name": "Baden Powell", "state": "PA", "campground_type": "Campground", "is_verified": false, "signal_score": 90, "signal_quality_score": 90, "carrier_count": 3, "remote_work_score": 76.0, "latitude": 40.8507085, "longitude": -77.248364, "verizon_coverage": true, "att_coverage": true, "tmobile_coverage": true}, {"slug": "badger", "campground_name": "Badger", "state": "WI", "campground_type": "Campground", "is_verified": false, "signal_score": 10, "signal_quality_score": 10, "carrier_count": 0, "remote_work_score": 20.0, "latitude": 44.1487344, "longitude": -89.1401417, "verizon_coverage": false, "att_coverage": false, "tmobile_coverage": false}, {"slug": "badger-camp-resort", "campground_name": "Badger Camp & Resort", "state": "WI", "campground_type": "Private", "is_verified": false, "signal_score": 70, "signal_quality_score": 70, "carrier_count": 2, "remote_work_score": 68.0, "latitude": 43.5392412, "longitude": -87.9401887, "verizon_coverage": true, "att_coverage": false, "tmobile_coverage": true}, {"slug": "badgerland-campground", "campground_name": "Badgerland Campground", "state": "WI", "campground_type": "Campground", "is_verified": false, "signal_score": 90, "signal_quality_score": 95, "carrier_count": 3, "remote_work_score": 89.5, "latitude": 42.9753148, "longitude": -89.2166749, "verizon_coverage": true, "att_coverage": true, "tmobile_coverage": true}, {"slug": "badlands", "campground_name": "Badlands", "state": "MI", "campground_type": "Campground", "is_verified": false, "signal_score": 10, "signal_quality_score": 10, "carrier_count": 0, "remote_work_score": 27.5, "latitude": 43.4145283, "longitude": -86.2485287, "verizon_coverage": false, "att_coverage": false, "tmobile_coverage": false}, {"slug": "bagley-rapids-campground", "campground_name": "Bagley Rapids Campground", "state": "WI", "campground_type": "National Forest", "is_verified": true, "signal_score": 10, "signal_quality_score": 10, "carrier_count": 0, "remote_work_score": 14.0, "latitude": 45.157034, "longitude": -88.4655383, "verizon_coverage": false, "att_coverage": false, "tmobile_coverage": false}, {"slug": "baker-s-field", "campground_name": "Baker's Field", "state": "WI", "campground_type": "Campground", "is_verified": false, "signal_score": 10, "signal_quality_score": 10, "carrier_count": 0, "remote_work_score": 24.0, "latitude": 43.6575544, "longitude": -90.2248495, "verizon_coverage": false, "att_coverage": false, "tmobile_coverage": false}, {"slug": "baker-s-field-bike-trail-camping", "campground_name": "Baker's Field Bike Trail Camping", "state": "WI", "campground_type": "Campground", "is_verified": false, "signal_score": 10, "signal_quality_score": 10, "carrier_count": 0, "remote_work_score": 24.0, "latitude": 43.657959, "longitude": -90.2258526, "verizon_coverage": false, "att_coverage": false, "tmobile_coverage": false}, {"slug": "bald-eagle-72", "campground_name": "Bald Eagle #72", "state": "PA", "campground_type": "Campground", "is_verified": false, "signal_score": 70, "signal_quality_score": 70, "carrier_count": 2, "remote_work_score": 62.0, "latitude": 40.7346044, "longitude": -77.0951308, "verizon_coverage": true, "att_coverage": true, "tmobile_coverage": false}, {"slug": "ballard-canoe-1", "campground_name": "Ballard Canoe 1", "state": "WI", "campground_type": "State Forest", "is_verified": true, "signal_score": 10, "signal_quality_score": 10, "carrier_count": 0, "remote_work_score": 14.0, "latitude": 46.0685258, "longitude": -89.4987174, "verizon_coverage": false, "att_coverage": false, "tmobile_coverage": false}, {"slug": "ballard-canoe-2", "campground_name": "Ballard Canoe 2", "state": "WI", "campground_type": "State Forest", "is_verified": true, "signal_score": 10, "signal_quality_score": 10, "carrier_count": 0, "remote_work_score": 14.0, "latitude": 46.0678694, "longitude": -89.4955391, "verizon_coverage": false, "att_coverage": false, "tmobile_coverage": false}, {"slug": "balsam-lake-campground", "campground_name": "Balsam Lake Campground", "state": "WI", "campground_type": "Campground", "is_verified": false, "signal_score": 10, "signal_quality_score": 10, "carrier_count": 0, "remote_work_score": 18.0, "latitude": 45.4506236, "longitude": -92.4571005, "verizon_coverage": false, "att_coverage": false, "tmobile_coverage": false}, {"slug": "baraboo-hills-campground", "campground_name": "Baraboo Hills Campground", "state": "WI", "campground_type": "Campground", "is_verified": false, "signal_score": 90, "signal_quality_score": 90, "carrier_count": 3, "remote_work_score": 89.5, "latitude": 43.4947915, "longitude": -89.7954069, "verizon_coverage": true, "att_coverage": true, "tmobile_coverage": true}, {"slug": "baraga-state-park", "campground_name": "Baraga State Park", "state": "MI", "campground_type": "State Park", "is_verified": false, "signal_score": 70, "signal_quality_score": 75, "carrier_count": 2, "remote_work_score": 53.5, "latitude": 46.7615477, "longitude": -88.5017512, "verizon_coverage": true, "att_coverage": true, "tmobile_coverage": false}, {"slug": "bark-n-beavers", "campground_name": "Bark 'N' Beavers", "state": "WI", "campground_type": "Campground", "is_verified": false, "signal_score": 10, "signal_quality_score": 10, "carrier_count": 0, "remote_work_score": 18.0, "latitude": 46.7381436, "longitude": -91.4252325, "verizon_coverage": false, "att_coverage": false, "tmobile_coverage": false}, {"slug": "barnes-county-park-campground", "campground_name": "Barnes County Park Campground", "state": "MI", "campground_type": "County Park", "is_verified": false, "signal_score": 90, "signal_quality_score": 90, "carrier_count": 3, "remote_work_score": 74.0, "latitude": 45.1119867, "longitude": -85.3602233, "verizon_coverage": true, "att_coverage": true, "tmobile_coverage": true}, {"slug": "bashore-scout-reservation", "campground_name": "Bashore Scout Reservation", "state": "PA", "campground_type": "Scout Camp", "is_verified": false, "signal_score": 90, "signal_quality_score": 95, "carrier_count": 3, "remote_work_score": 83.5, "latitude": 40.4715528, "longitude": -76.571041, "verizon_coverage": true, "att_coverage": true, "tmobile_coverage": true}, {"slug": "bass-lake-camp", "campground_name": "Bass Lake Camp", "state": "MI", "campground_type": "Private", "is_verified": false, "signal_score": 10, "signal_quality_score": 10, "carrier_count": 0, "remote_work_score": 27.5, "latitude": 43.4193973, "longitude": -86.2104189, "verizon_coverage": false, "att_coverage": false, "tmobile_coverage": false}, {"slug": "bass-lake-state-forest-campground", "campground_name": "Bass Lake State Forest Campground", "state": "MI", "campground_type": "State Forest", "is_verified": true, "signal_score": 10, "signal_quality_score": 10, "carrier_count": 0, "remote_work_score": 15.5, "latitude": 46.2634106, "longitude": -87.5863803, "verizon_coverage": false, "att_coverage": false, "tmobile_coverage": false}, {"slug": "bass-lake-state-forest-campground-luce", "campground_name": "Bass Lake State Forest Campground (Luce)", "state": "MI", "campground_type": "State Forest", "is_verified": true, "signal_score": 10, "signal_quality_score": 10, "carrier_count": 0, "remote_work_score": 12.5, "latitude": 46.4629099, "longitude": -85.7087656, "verizon_coverage": false, "att_coverage": false, "tmobile_coverage": false}, {"slug": "bassett-island-campground", "campground_name": "Bassett Island Campground", "state": "MI", "campground_type": "County Park", "is_verified": false, "signal_score": 70, "signal_quality_score": 70, "carrier_count": 2, "remote_work_score": 67.0, "latitude": 44.8725633, "longitude": -85.570102, "verizon_coverage": false, "att_coverage": true, "tmobile_coverage": true}, {"slug": "basswood", "campground_name": "Basswood", "state": "WI", "campground_type": "Campground", "is_verified": false, "signal_score": 90, "signal_quality_score": 95, "carrier_count": 3, "remote_work_score": 88.0, "latitude": 42.5070446, "longitude": -88.1695738, "verizon_coverage": true, "att_coverage": true, "tmobile_coverage": true}, {"slug": "bates-township-park-sunset-lake-campground", "campground_name": "Bates Township Park/Sunset Lake Campground", "state": "MI", "campground_type": "Campground", "is_verified": false, "signal_score": 90, "signal_quality_score": 95, "carrier_count": 3, "remote_work_score": 68.5, "latitude": 46.129583, "longitude": -88.5872014, "verizon_coverage": true, "att_coverage": true, "tmobile_coverage": true}, {"slug": "batura", "campground_name": "BATURA", "state": "WI", "campground_type": "Campground", "is_verified": false, "signal_score": 10, "signal_quality_score": 10, "carrier_count": 0, "remote_work_score": 24.0, "latitude": 44.1218065, "longitude": -89.9578925, "verizon_coverage": false, "att_coverage": false, "tmobile_coverage": false}, {"slug": "baxter-bridge-state-forest-campground", "campground_name": "Baxter Bridge State Forest Campground", "state": "MI", "campground_type": "State Forest", "is_verified": true, "signal_score": 10, "signal_quality_score": 10, "carrier_count": 0, "remote_work_score": 24.0, "latitude": 44.4932869, "longitude": -85.5237806, "verizon_coverage": false, "att_coverage": false, "tmobile_coverage": false}, {"slug": "bay-city-campground", "campground_name": "Bay City Campground", "state": "WI", "campground_type": "Campground", "is_verified": false, "signal_score": 10, "signal_quality_score": 10, "carrier_count": 0, "remote_work_score": 18.0, "latitude": 44.5797314, "longitude": -92.4554505, "verizon_coverage": false, "att_coverage": false, "tmobile_coverage": false}, {"slug": "bay-city-state-park-campgrounds", "campground_name": "Bay City State Park Campground", "state": "MI", "campground_type": "State Park", "is_verified": true, "signal_score": 90, "signal_quality_score": 90, "carrier_count": 3, "remote_work_score": 86.5, "latitude": 43.6642649, "longitude": -83.9019603, "verizon_coverage": true, "att_coverage": true, "tmobile_coverage": true}, {"slug": "bay-cliff-health-camp", "campground_name": "Bay Cliff Health Camp", "state": "MI", "campground_type": "Campground", "is_verified": false, "signal_score": 40, "signal_quality_score": 40, "carrier_count": 1, "remote_work_score": 36.5, "latitude": 46.8261246, "longitude": -87.7322829, "verizon_coverage": true, "att_coverage": false, "tmobile_coverage": false}, {"slug": "bay-de-noc-trailhead-camping", "campground_name": "Bay de Noc Trailhead Camping", "state": "MI", "campground_type": "Campground", "is_verified": false, "signal_score": 90, "signal_quality_score": 95, "carrier_count": 3, "remote_work_score": 76.5, "latitude": 45.9331678, "longitude": -86.9193183, "verizon_coverage": true, "att_coverage": true, "tmobile_coverage": true}, {"slug": "bay-furnace-campground", "campground_name": "Bay Furnace Campground", "state": "MI", "campground_type": "National Forest", "is_verified": true, "signal_score": 70, "signal_quality_score": 75, "carrier_count": 2, "remote_work_score": 57.5, "latitude": 46.4410335, "longitude": -86.7075626, "verizon_coverage": true, "att_coverage": true, "tmobile_coverage": false}, {"slug": "bay-park-resort-campground", "campground_name": "Bay Park Resort & Campground", "state": "WI", "campground_type": "Private", "is_verified": false, "signal_score": 40, "signal_quality_score": 40, "carrier_count": 1, "remote_work_score": 35.0, "latitude": 45.9361866, "longitude": -91.8861069, "verizon_coverage": true, "att_coverage": false, "tmobile_coverage": false}, {"slug": "bay-point-campground", "campground_name": "Bay Point Campground", "state": "OH", "campground_type": "Private", "is_verified": false, "signal_score": 90, "signal_quality_score": 95, "carrier_count": 3, "remote_work_score": 88.0, "latitude": 41.502579, "longitude": -82.7158876, "verizon_coverage": true, "att_coverage": true, "tmobile_coverage": true}, {"slug": "bay-shore-park-campground", "campground_name": "Bay Shore Park Campground", "state": "WI", "campground_type": "Campground", "is_verified": false, "signal_score": 40, "signal_quality_score": 50, "carrier_count": 1, "remote_work_score": 47.0, "latitude": 44.6358606, "longitude": -87.7971828, "verizon_coverage": true, "att_coverage": false, "tmobile_coverage": false}, {"slug": "bay-view-campground", "campground_name": "Bay View Campground", "state": "MI", "campground_type": "Campground", "is_verified": false, "signal_score": 10, "signal_quality_score": 10, "carrier_count": 0, "remote_work_score": 24.0, "latitude": 46.4498088, "longitude": -84.7806619, "verizon_coverage": false, "att_coverage": false, "tmobile_coverage": false}, {"slug": "baylor-beach-park-water-park-campground", "campground_name": "Baylor Beach Park;Water Park & Campground", "state": "OH", "campground_type": "Campground", "is_verified": false, "signal_score": 70, "signal_quality_score": 70, "carrier_count": 2, "remote_work_score": 71.0, "latitude": 40.6884261, "longitude": -81.6026755, "verizon_coverage": true, "att_coverage": false, "tmobile_coverage": true}, {"slug": "bayridge-rv-park-campground", "campground_name": "Bayridge RV Park & Campground", "state": "MI", "campground_type": "Campground", "is_verified": false, "signal_score": 40, "signal_quality_score": 40, "carrier_count": 1, "remote_work_score": 37.5, "latitude": 45.7871652, "longitude": -86.5677305, "verizon_coverage": false, "att_coverage": true, "tmobile_coverage": false}, {"slug": "beacon-hill-camping", "campground_name": "Beacon Hill Camping", "state": "PA", "campground_type": "Campground", "is_verified": false, "signal_score": 90, "signal_quality_score": 95, "carrier_count": 3, "remote_work_score": 85.0, "latitude": 40.0462921, "longitude": -76.1146521, "verizon_coverage": true, "att_coverage": true, "tmobile_coverage": true}, {"slug": "bear", "campground_name": "Bear", "state": "PA", "campground_type": "Campground", "is_verified": false, "signal_score": 90, "signal_quality_score": 90, "carrier_count": 3, "remote_work_score": 76.0, "latitude": 40.8530944, "longitude": -77.2495763, "verizon_coverage": true, "att_coverage": true, "tmobile_coverage": true}, {"slug": "bear-wi", "campground_name": "Bear", "state": "WI", "campground_type": "Campground", "is_verified": false, "signal_score": 10, "signal_quality_score": 10, "carrier_count": 0, "remote_work_score": 20.0, "latitude": 44.1502288, "longitude": -89.1398603, "verizon_coverage": false, "att_coverage": false, "tmobile_coverage": false}, {"slug": "bear-creek-campground", "campground_name": "Bear Creek Campground", "state": "OH", "campground_type": "Campground", "is_verified": false, "signal_score": 90, "signal_quality_score": 90, "carrier_count": 3, "remote_work_score": 80.0, "latitude": 38.9222872, "longitude": -83.0510461, "verizon_coverage": true, "att_coverage": true, "tmobile_coverage": true}, {"slug": "bear-island-primitive-campsite", "campground_name": "Bear Island Primitive Campsite", "state": "MI", "campground_type": "National Forest", "is_verified": true, "signal_score": 10, "signal_quality_score": 10, "carrier_count": 0, "remote_work_score": 18.0, "latitude": 44.6327488, "longitude": -83.8933068, "verizon_coverage": false, "att_coverage": false, "tmobile_coverage": false}, {"slug": "bear-lake-horse-camp", "campground_name": "Bear Lake Horse Camp", "state": "OH", "campground_type": "State Forest", "is_verified": true, "signal_score": 10, "signal_quality_score": 10, "carrier_count": 0, "remote_work_score": 24.0, "latitude": 38.7825005, "longitude": -83.1785149, "verizon_coverage": false, "att_coverage": false, "tmobile_coverage": false}, {"slug": "bear-lake-recreation-area-campground", "campground_name": "Bear Lake Recreation Area Campground", "state": "WI", "campground_type": "National Forest", "is_verified": true, "signal_score": 10, "signal_quality_score": 10, "carrier_count": 0, "remote_work_score": 12.5, "latitude": 45.5135124, "longitude": -88.5296302, "verizon_coverage": false, "att_coverage": false, "tmobile_coverage": false}, {"slug": "bear-paw-scout-camp", "campground_name": "Bear Paw Scout Camp", "state": "WI", "campground_type": "Scout Camp", "is_verified": false, "signal_score": 10, "signal_quality_score": 10, "carrier_count": 0, "remote_work_score": 18.0, "latitude": 45.1804737, "longitude": -88.3965068, "verizon_coverage": false, "att_coverage": false, "tmobile_coverage": false}, {"slug": "bear-ridge-campground-rv-resort", "campground_name": "Bear Ridge Campground & RV Resort", "state": "PA", "campground_type": "Private", "is_verified": false, "signal_score": 40, "signal_quality_score": 40, "carrier_count": 1, "remote_work_score": 43.0, "latitude": 40.8881991, "longitude": -79.4278642, "verizon_coverage": false, "att_coverage": true, "tmobile_coverage": false}, {"slug": "bear-run-campground", "campground_name": "Bear Run Campground", "state": "PA", "campground_type": "Campground", "is_verified": false, "signal_score": 90, "signal_quality_score": 95, "carrier_count": 3, "remote_work_score": 85.0, "latitude": 40.9280421, "longitude": -80.1232611, "verizon_coverage": true, "att_coverage": true, "tmobile_coverage": true}, {"slug": "bear-track-campground", "campground_name": "Bear Track Campground", "state": "MI", "campground_type": "National Forest", "is_verified": true, "signal_score": 10, "signal_quality_score": 10, "carrier_count": 0, "remote_work_score": 18.0, "latitude": 44.1474023, "longitude": -86.030919, "verizon_coverage": false, "att_coverage": false, "tmobile_coverage": false}, {"slug": "beaufort-lake-state-forest-campground", "campground_name": "Beaufort Lake State Forest Campground", "state": "MI", "campground_type": "State Forest", "is_verified": true, "signal_score": 40, "signal_quality_score": 50, "carrier_count": 1, "remote_work_score": 36.5, "latitude": 46.5477905, "longitude": -88.1886845, "verizon_coverage": false, "att_coverage": true, "tmobile_coverage": false}, {"slug": "beaver", "campground_name": "Beaver", "state": "PA", "campground_type": "Campground", "is_verified": false, "signal_score": 90, "signal_quality_score": 90, "carrier_count": 3, "remote_work_score": 76.0, "latitude": 40.8536239, "longitude": -77.2495307, "verizon_coverage": true, "att_coverage": true, "tmobile_coverage": true}, {"slug": "beaver-creek-campground", "campground_name": "Beaver Creek Campground", "state": "MI", "campground_type": "National Forest", "is_verified": true, "signal_score": 10, "signal_quality_score": 10, "carrier_count": 0, "remote_work_score": 11.5, "latitude": 46.5775019, "longitude": -86.3500495, "verizon_coverage": false, "att_coverage": false, "tmobile_coverage": false}, {"slug": "beaver-island-campground", "campground_name": "Beaver Island Campground", "state": "MI", "campground_type": "Campground", "is_verified": false, "signal_score": 10, "signal_quality_score": 10, "carrier_count": 0, "remote_work_score": 8.5, "latitude": 47.9057941, "longitude": -89.173111, "verizon_coverage": false, "att_coverage": false, "tmobile_coverage": false}, {"slug": "beaver-lake-campground", "campground_name": "Beaver Lake Campground", "state": "WI", "campground_type": "National Forest", "is_verified": true, "signal_score": 10, "signal_quality_score": 10, "carrier_count": 0, "remote_work_score": 12.5, "latitude": 46.3018778, "longitude": -90.8975193, "verizon_coverage": false, "att_coverage": false, "tmobile_coverage": false}, {"slug": "beaver-meadows-recreational-area-campground", "campground_name": "Beaver Meadows Recreational Area Campground", "state": "PA", "campground_type": "Campground", "is_verified": false, "signal_score": 10, "signal_quality_score": 10, "carrier_count": 0, "remote_work_score": 18.0, "latitude": 41.5239114, "longitude": -79.1130178, "verizon_coverage": false, "att_coverage": false, "tmobile_coverage": false}, {"slug": "beaver-point", "campground_name": "Beaver Point", "state": "MI", "campground_type": "Private", "is_verified": false, "signal_score": 90, "signal_quality_score": 95, "carrier_count": 3, "remote_work_score": 85.0, "latitude": 41.9670763, "longitude": -86.3581236, "verizon_coverage": true, "att_coverage": true, "tmobile_coverage": true}, {"slug": "beaver-valley-camp", "campground_name": "Beaver Valley Camp", "state": "WI", "campground_type": "Campground", "is_verified": false, "signal_score": 40, "signal_quality_score": 50, "carrier_count": 1, "remote_work_score": 45.0, "latitude": 45.2395506, "longitude": -92.7469485, "verizon_coverage": true, "att_coverage": false, "tmobile_coverage": false}, {"slug": "beaver-valley-campgrounds", "campground_name": "Beaver Valley Campgrounds", "state": "PA", "campground_type": "Campground", "is_verified": false, "signal_score": 70, "signal_quality_score": 70, "carrier_count": 2, "remote_work_score": 66.0, "latitude": 40.4940855, "longitude": -75.1373413, "verizon_coverage": true, "att_coverage": false, "tmobile_coverage": true}, {"slug": "beech", "campground_name": "Beech", "state": "WI", "campground_type": "Campground", "is_verified": false, "signal_score": 90, "signal_quality_score": 95, "carrier_count": 3, "remote_work_score": 88.0, "latitude": 42.5067175, "longitude": -88.1693911, "verizon_coverage": true, "att_coverage": true, "tmobile_coverage": true}, {"slug": "beechwood-campground", "campground_name": "Beechwood Campground", "state": "MI", "campground_type": "Campground", "is_verified": false, "signal_score": 40, "signal_quality_score": 40, "carrier_count": 1, "remote_work_score": 39.0, "latitude": 44.0382817, "longitude": -86.495368, "verizon_coverage": false, "att_coverage": false, "tmobile_coverage": true}, {"slug": "beechwood-hills-camp", "campground_name": "Beechwood Hills Camp", "state": "MI", "campground_type": "Campground", "is_verified": false, "signal_score": 40, "signal_quality_score": 40, "carrier_count": 1, "remote_work_score": 47.0, "latitude": 42.6506952, "longitude": -85.7653957, "verizon_coverage": true, "att_coverage": false, "tmobile_coverage": false}, {"slug": "begley-s-atv-campground", "campground_name": "Begley's ATV Campground", "state": "OH", "campground_type": "Campground", "is_verified": false, "signal_score": 40, "signal_quality_score": 30, "carrier_count": 1, "remote_work_score": 47.0, "latitude": 39.5762741, "longitude": -82.2351876, "verizon_coverage": true, "att_coverage": false, "tmobile_coverage": false}, {"slug": "benach-lake-campsite", "campground_name": "Benach Lake Campsite", "state": "WI", "campground_type": "County Park", "is_verified": false, "signal_score": 40, "signal_quality_score": 30, "carrier_count": 1, "remote_work_score": 35.0, "latitude": 45.9279415, "longitude": -92.2572442, "verizon_coverage": true, "att_coverage": false, "tmobile_coverage": false}, {"slug": "benezette-store-campground", "campground_name": "Benezette Store Campground", "state": "PA", "campground_type": "Campground", "is_verified": false, "signal_score": 10, "signal_quality_score": 10, "carrier_count": 0, "remote_work_score": 24.0, "latitude": 41.3141515, "longitude": -78.3922572, "verizon_coverage": false, "att_coverage": false, "tmobile_coverage": false}, {"slug": "benner-s-meadow-run-camping-cabins", "campground_name": "Benner's Meadow Run Camping  & Cabins", "state": "PA", "campground_type": "Campground", "is_verified": false, "signal_score": 70, "signal_quality_score": 70, "carrier_count": 2, "remote_work_score": 64.0, "latitude": 39.839003, "longitude": -79.5662253, "verizon_coverage": true, "att_coverage": true, "tmobile_coverage": false}, {"slug": "benton-lake-campground", "campground_name": "Benton Lake Campground", "state": "MI", "campground_type": "Campground", "is_verified": false, "signal_score": 40, "signal_quality_score": 40, "carrier_count": 1, "remote_work_score": 41.0, "latitude": 43.668987, "longitude": -85.8898862, "verizon_coverage": true, "att_coverage": false, "tmobile_coverage": false}, {"slug": "bethel-youth-camp", "campground_name": "Bethel Youth Camp", "state": "MI", "campground_type": "Campground", "is_verified": false, "signal_score": 10, "signal_quality_score": 10, "carrier_count": 0, "remote_work_score": 18.0, "latitude": 45.2948024, "longitude": -83.9140855, "verizon_coverage": false, "att_coverage": false, "tmobile_coverage": false}, {"slug": "betsie-river-canoes-campground", "campground_name": "Betsie River Canoes & Campground", "state": "MI", "campground_type": "Campground", "is_verified": false, "signal_score": 70, "signal_quality_score": 75, "carrier_count": 2, "remote_work_score": 60.0, "latitude": 44.5223587, "longitude": -85.966116, "verizon_coverage": true, "att_coverage": false, "tmobile_coverage": true}, {"slug": "ski-kwe-zaag-igan-state-forest-campground", "campground_name": "Bewabic State Park", "state": "MI", "campground_type": "State Park", "is_verified": true, "signal_score": 40, "signal_quality_score": 40, "carrier_count": 1, "remote_work_score": 36.5, "latitude": 46.2902283, "longitude": -88.0628004, "verizon_coverage": true, "att_coverage": false, "tmobile_coverage": false}, {"slug": "big-bay-state-park-campground", "campground_name": "Big Bay State Park Campground", "state": "WI", "campground_type": "State Park", "is_verified": false, "signal_score": 40, "signal_quality_score": 30, "carrier_count": 1, "remote_work_score": 33.5, "latitude": 46.796556, "longitude": -90.6736422, "verizon_coverage": true, "att_coverage": false, "tmobile_coverage": false}, {"slug": "big-bay-state-park-group-camp-site-1", "campground_name": "Big Bay State Park Group Camp Site 1", "state": "WI", "campground_type": "State Park", "is_verified": true, "signal_score": 40, "signal_quality_score": 30, "carrier_count": 1, "remote_work_score": 33.5, "latitude": 46.788424, "longitude": -90.6686323, "verizon_coverage": true, "att_coverage": false, "tmobile_coverage": false}, {"slug": "big-bay-state-park-group-camp-site-2", "campground_name": "Big Bay State Park Group Camp Site 2", "state": "WI", "campground_type": "State Park", "is_verified": true, "signal_score": 40, "signal_quality_score": 40, "carrier_count": 1, "remote_work_score": 33.5, "latitude": 46.8146013, "longitude": -90.6873502, "verizon_coverage": true, "att_coverage": false, "tmobile_coverage": false}, {"slug": "big-bay-town-park-campground", "campground_name": "Big Bay Town Park Campground", "state": "WI", "campground_type": "Campground", "is_verified": false, "signal_score": 40, "signal_quality_score": 30, "carrier_count": 1, "remote_work_score": 33.5, "latitude": 46.8195891, "longitude": -90.6779502, "verizon_coverage": true, "att_coverage": false, "tmobile_coverage": false}, {"slug": "big-bear-lake-state-forest-campground", "campground_name": "Big Bear Lake State Forest Campground", "state": "MI", "campground_type": "State Forest", "is_verified": true, "signal_score": 40, "signal_quality_score": 40, "carrier_count": 1, "remote_work_score": 37.0, "latitude": 44.9421125, "longitude": -84.3869319, "verizon_coverage": false, "att_coverage": true, "tmobile_coverage": false}, {"slug": "big-bear-lake-state-forest-campground-mi", "campground_name": "Big Bear Lake State Forest Campground", "state": "MI", "campground_type": "State Forest", "is_verified": false, "signal_score": 40, "signal_quality_score": 40, "carrier_count": 1, "remote_work_score": 37.0, "latitude": 44.9442329, "longitude": -84.380541, "verizon_coverage": false, "att_coverage": true, "tmobile_coverage": false}, {"slug": "big-bend-township-park", "campground_name": "Big Bend Township Park", "state": "MI", "campground_type": "Campground", "is_verified": false, "signal_score": 40, "signal_quality_score": 40, "carrier_count": 1, "remote_work_score": 44.5, "latitude": 43.5134783, "longitude": -85.5803069, "verizon_coverage": true, "att_coverage": false, "tmobile_coverage": false}, {"slug": "big-butternut-lake", "campground_name": "Big Butternut Lake", "state": "WI", "campground_type": "Campground", "is_verified": false, "signal_score": 10, "signal_quality_score": 10, "carrier_count": 0, "remote_work_score": 18.0, "latitude": 45.5668925, "longitude": -92.4682854, "verizon_coverage": false, "att_coverage": false, "tmobile_coverage": false}, {"slug": "big-eric-s-bridge-state-forest-campground", "campground_name": "Big Eric's Bridge State Forest Campground", "state": "MI", "campground_type": "State Forest", "is_verified": false, "signal_score": 10, "signal_quality_score": 10, "carrier_count": 0, "remote_work_score": 15.5, "latitude": 46.8651437, "longitude": -88.0847014, "verizon_coverage": false, "att_coverage": false, "tmobile_coverage": false}, {"slug": "big-falls-county-campground", "campground_name": "Big Falls County Campground", "state": "WI", "campground_type": "County Park", "is_verified": false, "signal_score": 10, "signal_quality_score": 10, "carrier_count": 0, "remote_work_score": 14.0, "latitude": 45.4023132, "longitude": -90.6338255, "verizon_coverage": false, "att_coverage": false, "tmobile_coverage": false}, {"slug": "rv-camping-big-foot-beach-state-park", "campground_name": "Big Foot Beach State Park Campground", "state": "WI", "campground_type": "State Park", "is_verified": true, "signal_score": 70, "signal_quality_score": 75, "carrier_count": 2, "remote_work_score": 72.5, "latitude": 42.5712604, "longitude": -88.4256133, "verizon_coverage": false, "att_coverage": true, "tmobile_coverage": true}, {"slug": "big-knob-state-forest-campground", "campground_name": "Big Knob State Forest Campground", "state": "MI", "campground_type": "State Forest", "is_verified": true, "signal_score": 70, "signal_quality_score": 70, "carrier_count": 2, "remote_work_score": 54.5, "latitude": 46.03940123, "longitude": -85.59372823, "verizon_coverage": false, "att_coverage": true, "tmobile_coverage": true}, {"slug": "big-lake-campground", "campground_name": "Big Lake Campground", "state": "WI", "campground_type": "State Forest", "is_verified": true, "signal_score": 10, "signal_quality_score": 10, "carrier_count": 0, "remote_work_score": 9.5, "latitude": 46.1643288, "longitude": -89.7874639, "verizon_coverage": false, "att_coverage": false, "tmobile_coverage": false}, {"slug": "big-lake-state-forest-campground", "campground_name": "Big Lake State Forest Campground", "state": "WI", "campground_type": "State Forest", "is_verified": true, "signal_score": 70, "signal_quality_score": 70, "carrier_count": 2, "remote_work_score": 53.5, "latitude": 46.6116545, "longitude": -88.5725225, "verizon_coverage": true, "att_coverage": true, "tmobile_coverage": false}, {"slug": "big-oaks-equestrian-state-campground", "campground_name": "Big Oaks Equestrian State Campground", "state": "MI", "campground_type": "Campground", "is_verified": false, "signal_score": 70, "signal_quality_score": 70, "carrier_count": 2, "remote_work_score": 60.0, "latitude": 44.9269325, "longitude": -84.1916442, "verizon_coverage": true, "att_coverage": true, "tmobile_coverage": false}, {"slug": "big-river-campground", "campground_name": "Big River Campground", "state": "WI", "campground_type": "Campground", "is_verified": false, "signal_score": 40, "signal_quality_score": 50, "carrier_count": 1, "remote_work_score": 39.0, "latitude": 43.0269289, "longitude": -91.1415724, "verizon_coverage": false, "att_coverage": false, "tmobile_coverage": true}, {"slug": "big-rock-campground", "campground_name": "Big Rock Campground", "state": "WI", "campground_type": "Campground", "is_verified": false, "signal_score": 40, "signal_quality_score": 50, "carrier_count": 1, "remote_work_score": 33.5, "latitude": 46.7101149, "longitude": -90.9254973, "verizon_coverage": false, "att_coverage": true, "tmobile_coverage": false}, {"slug": "big-traverse-bay-rustic-campground", "campground_name": "Big Traverse Bay Rustic Campground", "state": "MI", "campground_type": "Campground", "is_verified": false, "signal_score": 10, "signal_quality_score": 10, "carrier_count": 0, "remote_work_score": 11.5, "latitude": 47.1725231, "longitude": -88.2432222, "verizon_coverage": false, "att_coverage": false, "tmobile_coverage": false}, {"slug": "bike-hike-campground", "campground_name": "Bike/Hike Campground", "state": "WI", "campground_type": "Campground", "is_verified": false, "signal_score": 90, "signal_quality_score": 95, "carrier_count": 3, "remote_work_score": 83.5, "latitude": 43.0191491, "longitude": -89.8481992, "verizon_coverage": true, "att_coverage": true, "tmobile_coverage": true}, {"slug": "bill-wagner-campground", "campground_name": "Bill Wagner Campground", "state": "MI", "campground_type": "Campground", "is_verified": false, "signal_score": 40, "signal_quality_score": 50, "carrier_count": 1, "remote_work_score": 35.0, "latitude": 45.6558755, "longitude": -85.4952513, "verizon_coverage": true, "att_coverage": false, "tmobile_coverage": false}, {"slug": "birch", "campground_name": "Birch", "state": "WI", "campground_type": "Private", "is_verified": false, "signal_score": 10, "signal_quality_score": 10, "carrier_count": 0, "remote_work_score": 14.0, "latitude": 45.3772539, "longitude": -88.9808579, "verizon_coverage": false, "att_coverage": false, "tmobile_coverage": false}, {"slug": "birch-wi", "campground_name": "Birch", "state": "WI", "campground_type": "Campground", "is_verified": false, "signal_score": 90, "signal_quality_score": 95, "carrier_count": 3, "remote_work_score": 88.0, "latitude": 42.5050784, "longitude": -88.1731884, "verizon_coverage": true, "att_coverage": true, "tmobile_coverage": true}, {"slug": "birch-grove-campground", "campground_name": "Birch Grove Campground", "state": "WI", "campground_type": "National Forest", "is_verified": true, "signal_score": 40, "signal_quality_score": 30, "carrier_count": 1, "remote_work_score": 33.5, "latitude": 46.6851297, "longitude": -91.0608829, "verizon_coverage": false, "att_coverage": true, "tmobile_coverage": false}, {"slug": "birch-island-campground", "campground_name": "Birch Island Campground", "state": "MI", "campground_type": "Campground", "is_verified": false, "signal_score": 10, "signal_quality_score": 10, "carrier_count": 0, "remote_work_score": 8.5, "latitude": 48.1101233, "longitude": -88.6856622, "verizon_coverage": false, "att_coverage": false, "tmobile_coverage": false}, {"slug": "birchview-farm-campground", "campground_name": "Birchview Farm Campground", "state": "PA", "campground_type": "Campground", "is_verified": false, "signal_score": 90, "signal_quality_score": 90, "carrier_count": 3, "remote_work_score": 89.5, "latitude": 40.0378061, "longitude": -75.876561, "verizon_coverage": true, "att_coverage": true, "tmobile_coverage": true}, {"slug": "bird-song", "campground_name": "Bird Song", "state": "PA", "campground_type": "Campground", "is_verified": false, "signal_score": 90, "signal_quality_score": 90, "carrier_count": 3, "remote_work_score": 83.5, "latitude": 40.5333466, "longitude": -76.3464613, "verizon_coverage": true, "att_coverage": true, "tmobile_coverage": true}, {"slug": "bison", "campground_name": "Bison", "state": "PA", "campground_type": "Campground", "is_verified": false, "signal_score": 90, "signal_quality_score": 90, "carrier_count": 3, "remote_work_score": 76.0, "latitude": 40.8536685, "longitude": -77.251773, "verizon_coverage": true, "att_coverage": true, "tmobile_coverage": true}, {"slug": "black-bear-cabins", "campground_name": "Black Bear Cabins", "state": "PA", "campground_type": "Campground", "is_verified": false, "signal_score": 10, "signal_quality_score": 10, "carrier_count": 0, "remote_work_score": 22.0, "latitude": 41.3183943, "longitude": -79.1978078, "verizon_coverage": false, "att_coverage": false, "tmobile_coverage": false}, {"slug": "black-creek-state-forest-campground", "campground_name": "Black Creek State Forest Campground", "state": "MI", "campground_type": "State Forest", "is_verified": true, "signal_score": 90, "signal_quality_score": 95, "carrier_count": 3, "remote_work_score": 83.5, "latitude": 43.7105172, "longitude": -84.3976098, "verizon_coverage": true, "att_coverage": true, "tmobile_coverage": true}, {"slug": "black-lake-county-park-campground", "campground_name": "Black Lake County Park Campground", "state": "MI", "campground_type": "County Park", "is_verified": false, "signal_score": 10, "signal_quality_score": 10, "carrier_count": 0, "remote_work_score": 20.0, "latitude": 43.7462154, "longitude": -86.1191065, "verizon_coverage": false, "att_coverage": false, "tmobile_coverage": false}, {"slug": "black-lake-recreation-area-campground", "campground_name": "Black Lake Recreation Area Campground", "state": "WI", "campground_type": "National Forest", "is_verified": true, "signal_score": 10, "signal_quality_score": 10, "carrier_count": 0, "remote_work_score": 12.5, "latitude": 45.9891853, "longitude": -90.929231, "verizon_coverage": false, "att_coverage": false, "tmobile_coverage": false}, {"slug": "black-lake-state-forest-campground-lower", "campground_name": "Black Lake State Forest Campground-Lower", "state": "MI", "campground_type": "State Forest", "is_verified": true, "signal_score": 40, "signal_quality_score": 50, "carrier_count": 1, "remote_work_score": 37.0, "latitude": 45.4898429, "longitude": -84.2648557, "verizon_coverage": true, "att_coverage": false, "tmobile_coverage": false}, {"slug": "black-lake-state-forest-campground-upper", "campground_name": "Black Lake State Forest Campground-Upper", "state": "MI", "campground_type": "State Forest", "is_verified": true, "signal_score": 40, "signal_quality_score": 50, "carrier_count": 1, "remote_work_score": 37.0, "latitude": 45.4918894, "longitude": -84.2664641, "verizon_coverage": true, "att_coverage": false, "tmobile_coverage": false}, {"slug": "black-moshannon-state-park-campground", "campground_name": "Black Moshannon State Park Campground", "state": "PA", "campground_type": "State Park", "is_verified": true, "signal_score": 40, "signal_quality_score": 30, "carrier_count": 1, "remote_work_score": 48.5, "latitude": 40.9168476, "longitude": -78.06428, "verizon_coverage": true, "att_coverage": false, "tmobile_coverage": false}, {"slug": "black-oak", "campground_name": "Black Oak", "state": "WI", "campground_type": "Campground", "is_verified": false, "signal_score": 90, "signal_quality_score": 95, "carrier_count": 3, "remote_work_score": 88.0, "latitude": 42.5066452, "longitude": -88.1678408, "verizon_coverage": true, "att_coverage": true, "tmobile_coverage": true}, {"slug": "black-river-harbor-campground", "campground_name": "Black River Harbor Campground", "state": "WI", "campground_type": "Campground", "is_verified": false, "signal_score": 70, "signal_quality_score": 75, "carrier_count": 2, "remote_work_score": 51.5, "latitude": 46.6641804, "longitude": -90.0522092, "verizon_coverage": true, "att_coverage": true, "tmobile_coverage": false}, {"slug": "black-river-state-forest-campground", "campground_name": "Black River State Forest Campground", "state": "MI", "campground_type": "State Forest", "is_verified": true, "signal_score": 90, "signal_quality_score": 95, "carrier_count": 3, "remote_work_score": 70.0, "latitude": 46.1168599, "longitude": -85.363597, "verizon_coverage": true, "att_coverage": true, "tmobile_coverage": true}, {"slug": "black-rock-retreat", "campground_name": "Black Rock Retreat", "state": "PA", "campground_type": "Campground", "is_verified": false, "signal_score": 90, "signal_quality_score": 90, "carrier_count": 3, "remote_work_score": 82.0, "latitude": 39.869826, "longitude": -76.107771, "verizon_coverage": true, "att_coverage": true, "tmobile_coverage": true}, {"slug": "black-walnut-bottom", "campground_name": "Black Walnut Bottom", "state": "PA", "campground_type": "Campground", "is_verified": false, "signal_score": 40, "signal_quality_score": 30, "carrier_count": 1, "remote_work_score": 41.0, "latitude": 41.4464422, "longitude": -77.5180711, "verizon_coverage": true, "att_coverage": false, "tmobile_coverage": false}, {"slug": "blackfoot-wi", "campground_name": "Blackfoot", "state": "WI", "campground_type": "Campground", "is_verified": false, "signal_score": 70, "signal_quality_score": 70, "carrier_count": 2, "remote_work_score": 72.5, "latitude": 44.0545331, "longitude": -91.2829623, "verizon_coverage": false, "att_coverage": true, "tmobile_coverage": true}, {"slug": "blackfoot-wi-2", "campground_name": "Blackfoot", "state": "WI", "campground_type": "Campground", "is_verified": false, "signal_score": 40, "signal_quality_score": 30, "carrier_count": 1, "remote_work_score": 37.0, "latitude": 45.697889, "longitude": -91.7034442, "verizon_coverage": true, "att_coverage": false, "tmobile_coverage": false}, {"slug": "blackfoot-wi-3", "campground_name": "Blackfoot", "state": "WI", "campground_type": "Private", "is_verified": false, "signal_score": 10, "signal_quality_score": 10, "carrier_count": 0, "remote_work_score": 14.0, "latitude": 45.3652993, "longitude": -88.9553101, "verizon_coverage": false, "att_coverage": false, "tmobile_coverage": false}, {"slug": "blackhawk", "campground_name": "Blackhawk", "state": "WI", "campground_type": "Campground", "is_verified": false, "signal_score": 10, "signal_quality_score": 10, "carrier_count": 0, "remote_work_score": 20.0, "latitude": 44.1532754, "longitude": -89.1520417, "verizon_coverage": false, "att_coverage": false, "tmobile_coverage": false}, {"slug": "blackhawk-county-park", "campground_name": "Blackhawk County Park", "state": "WI", "campground_type": "County Park", "is_verified": false, "signal_score": 70, "signal_quality_score": 75, "carrier_count": 2, "remote_work_score": 60.0, "latitude": 43.4631851, "longitude": -91.2235442, "verizon_coverage": false, "att_coverage": true, "tmobile_coverage": true}, {"slug": "blackhawk-lake-recreation-area-camping", "campground_name": "Blackhawk Lake Recreation Area Camping", "state": "WI", "campground_type": "Campground", "is_verified": false, "signal_score": 10, "signal_quality_score": 10, "carrier_count": 0, "remote_work_score": 22.0, "latitude": 43.0132829, "longitude": -90.287758, "verizon_coverage": false, "att_coverage": false, "tmobile_coverage": false}, {"slug": "blackhawk-memoreial-park-campground", "campground_name": "Blackhawk Memoreial Park Campground", "state": "WI", "campground_type": "Campground", "is_verified": false, "signal_score": 10, "signal_quality_score": 10, "carrier_count": 0, "remote_work_score": 24.0, "latitude": 42.6616883, "longitude": -89.87926, "verizon_coverage": false, "att_coverage": false, "tmobile_coverage": false}, {"slug": "blackhawk-park-campground", "campground_name": "Blackhawk Park Campground", "state": "WI", "campground_type": "Campground", "is_verified": false, "signal_score": 70, "signal_quality_score": 75, "carrier_count": 2, "remote_work_score": 60.0, "latitude": 43.4584145, "longitude": -91.2254314, "verizon_coverage": false, "att_coverage": true, "tmobile_coverage": true}, {"slug": "blacksmith-bayou-campground", "campground_name": "Blacksmith Bayou Campground", "state": "MI", "campground_type": "National Forest", "is_verified": true, "signal_score": 10, "signal_quality_score": 10, "carrier_count": 0, "remote_work_score": 18.0, "latitude": 44.2616973, "longitude": -86.0362686, "verizon_coverage": false, "att_coverage": false, "tmobile_coverage": false}, {"slug": "blind-lake-campground", "campground_name": "Blind Lake Rustic Campground", "state": "MI", "campground_type": "State Park", "is_verified": true, "signal_score": 10, "signal_quality_score": 10, "carrier_count": 0, "remote_work_score": 26.0, "latitude": 42.4120745, "longitude": -84.020485, "verizon_coverage": false, "att_coverage": false, "tmobile_coverage": false}, {"slug": "blind-sucker-no-1-state-forest-campground", "campground_name": "Blind Sucker No. 1 State Forest Campground", "state": "MI", "campground_type": "State Forest", "is_verified": true, "signal_score": 10, "signal_quality_score": 10, "carrier_count": 0, "remote_work_score": 12.5, "latitude": 46.669754, "longitude": -85.7621287, "verizon_coverage": false, "att_coverage": false, "tmobile_coverage": false}, {"slug": "blind-sucker-no-2-state-forest-campground", "campground_name": "Blind Sucker No. 2 State Forest Campground", "state": "MI", "campground_type": "State Forest", "is_verified": false, "signal_score": 10, "signal_quality_score": 10, "carrier_count": 0, "remote_work_score": 12.5, "latitude": 46.6666441, "longitude": -85.7536281, "verizon_coverage": false, "att_coverage": false, "tmobile_coverage": false}, {"slug": "blockhouse-campground", "campground_name": "Blockhouse Campground", "state": "WI", "campground_type": "National Forest", "is_verified": true, "signal_score": 10, "signal_quality_score": 10, "carrier_count": 0, "remote_work_score": 12.5, "latitude": 46.2416166, "longitude": -88.6331906, "verizon_coverage": false, "att_coverage": false, "tmobile_coverage": false}, {"slug": "blodgett-landing", "campground_name": "Blodgett Landing", "state": "MI", "campground_type": "Campground", "is_verified": false, "signal_score": 70, "signal_quality_score": 75, "carrier_count": 2, "remote_work_score": 65.5, "latitude": 43.8488774, "longitude": -85.4353352, "verizon_coverage": true, "att_coverage": false, "tmobile_coverage": true}, {"slug": "blue-dog-bike-camp", "campground_name": "Blue Dog Bike Camp", "state": "OH", "campground_type": "Campground", "is_verified": false, "signal_score": 90, "signal_quality_score": 95, "carrier_count": 3, "remote_work_score": 86.5, "latitude": 39.4142815, "longitude": -82.1835284, "verizon_coverage": true, "att_coverage": true, "tmobile_coverage": true}, {"slug": "blue-knob-camping-area", "campground_name": "Blue Knob Camping Area", "state": "PA", "campground_type": "Campground", "is_verified": false, "signal_score": 90, "signal_quality_score": 90, "carrier_count": 3, "remote_work_score": 82.0, "latitude": 40.2904233, "longitude": -78.5920093, "verizon_coverage": true, "att_coverage": true, "tmobile_coverage": true}, {"slug": "blue-lake-park-campground", "campground_name": "Blue Lake Park Campground", "state": "MI", "campground_type": "County Park", "is_verified": false, "signal_score": 10, "signal_quality_score": 10, "carrier_count": 0, "remote_work_score": 26.0, "latitude": 43.4494761, "longitude": -86.1936946, "verizon_coverage": false, "att_coverage": false, "tmobile_coverage": false}, {"slug": "blue-mountain-resort-campground", "campground_name": "Blue Mountain Resort Campground", "state": "PA", "campground_type": "Private", "is_verified": false, "signal_score": 90, "signal_quality_score": 90, "carrier_count": 3, "remote_work_score": 85.0, "latitude": 40.8208968, "longitude": -75.506017, "verizon_coverage": true, "att_coverage": true, "tmobile_coverage": true}, {"slug": "blue-rock-state-park-lower-campground", "campground_name": "Blue Rock State Park Lower Campground", "state": "OH", "campground_type": "State Park", "is_verified": true, "signal_score": 10, "signal_quality_score": 10, "carrier_count": 0, "remote_work_score": 24.0, "latitude": 39.8189109, "longitude": -81.8523437, "verizon_coverage": false, "att_coverage": false, "tmobile_coverage": false}, {"slug": "blue-rock-state-park-upper-campground", "campground_name": "Blue Rock State Park Upper Campground", "state": "OH", "campground_type": "State Park", "is_verified": true, "signal_score": 10, "signal_quality_score": 10, "carrier_count": 0, "remote_work_score": 24.0, "latitude": 39.8157837, "longitude": -81.8513577, "verizon_coverage": false, "att_coverage": false, "tmobile_coverage": false}, {"slug": "blue-rocks-family-campground", "campground_name": "Blue Rocks Family Campground", "state": "PA", "campground_type": "Campground", "is_verified": false, "signal_score": 90, "signal_quality_score": 95, "carrier_count": 3, "remote_work_score": 83.5, "latitude": 40.5926316, "longitude": -75.9122685, "verizon_coverage": true, "att_coverage": true, "tmobile_coverage": true}, {"slug": "blue-spruce-campground", "campground_name": "Blue Spruce Campground", "state": "MI", "campground_type": "Campground", "is_verified": false, "signal_score": 40, "signal_quality_score": 50, "carrier_count": 1, "remote_work_score": 48.5, "latitude": 44.4024964, "longitude": -85.3718705, "verizon_coverage": true, "att_coverage": false, "tmobile_coverage": false}, {"slug": "bluebird-springs-campground", "campground_name": "Bluebird Springs Campground", "state": "WI", "campground_type": "Campground", "is_verified": false, "signal_score": 90, "signal_quality_score": 90, "carrier_count": 3, "remote_work_score": 89.5, "latitude": 43.8215522, "longitude": -91.1636412, "verizon_coverage": true, "att_coverage": true, "tmobile_coverage": true}, {"slug": "bluewater-bay-campground", "campground_name": "Bluewater Bay Campground", "state": "WI", "campground_type": "Campground", "is_verified": false, "signal_score": 90, "signal_quality_score": 95, "carrier_count": 3, "remote_work_score": 88.0, "latitude": 43.5643467, "longitude": -89.8064144, "verizon_coverage": true, "att_coverage": true, "tmobile_coverage": true}, {"slug": "bob-lake-campground", "campground_name": "Bob Lake Campground", "state": "WI", "campground_type": "Campground", "is_verified": false, "signal_score": 10, "signal_quality_score": 10, "carrier_count": 0, "remote_work_score": 11.5, "latitude": 46.6620939, "longitude": -88.9140359, "verizon_coverage": false, "att_coverage": false, "tmobile_coverage": false}, {"slug": "bob-white", "campground_name": "Bob White", "state": "PA", "campground_type": "Campground", "is_verified": false, "signal_score": 90, "signal_quality_score": 90, "carrier_count": 3, "remote_work_score": 76.0, "latitude": 40.853277, "longitude": -77.2485946, "verizon_coverage": true, "att_coverage": true, "tmobile_coverage": true}, {"slug": "bobcat-lake-campground", "campground_name": "Bobcat Lake Campground", "state": "WI", "campground_type": "Campground", "is_verified": false, "signal_score": 90, "signal_quality_score": 95, "carrier_count": 3, "remote_work_score": 65.5, "latitude": 46.358875, "longitude": -89.6726464, "verizon_coverage": true, "att_coverage": true, "tmobile_coverage": true}, {"slug": "bobov-mesivta-camp", "campground_name": "Bobov Mesivta Camp", "state": "PA", "campground_type": "Campground", "is_verified": false, "signal_score": 40, "signal_quality_score": 40, "carrier_count": 1, "remote_work_score": 43.0, "latitude": 41.2515994, "longitude": -74.9545077, "verizon_coverage": true, "att_coverage": false, "tmobile_coverage": false}, {"slug": "bodi-lake-state-forest-campground", "campground_name": "Bodi Lake State Forest Campground", "state": "MI", "campground_type": "State Forest", "is_verified": true, "signal_score": 10, "signal_quality_score": 10, "carrier_count": 0, "remote_work_score": 12.5, "latitude": 46.7043559, "longitude": -85.3360222, "verizon_coverage": false, "att_coverage": false, "tmobile_coverage": false}, {"slug": "boelter-s-campground", "campground_name": "Boelter's Campground", "state": "WI", "campground_type": "Campground", "is_verified": false, "signal_score": 90, "signal_quality_score": 95, "carrier_count": 3, "remote_work_score": 89.5, "latitude": 43.970178, "longitude": -88.5622964, "verizon_coverage": true, "att_coverage": true, "tmobile_coverage": true}, {"slug": "bois-brule-campground", "campground_name": "Bois Brule Campground", "state": "WI", "campground_type": "State Forest", "is_verified": true, "signal_score": 40, "signal_quality_score": 50, "carrier_count": 1, "remote_work_score": 39.0, "latitude": 46.5395536, "longitude": -91.5916094, "verizon_coverage": false, "att_coverage": false, "tmobile_coverage": true}, {"slug": "brule-river-campground", "campground_name": "Bois Brule Campground", "state": "WI", "campground_type": "State Forest", "is_verified": true, "signal_score": 10, "signal_quality_score": 10, "carrier_count": 0, "remote_work_score": 12.5, "latitude": 46.0280746, "longitude": -88.7968678, "verizon_coverage": false, "att_coverage": false, "tmobile_coverage": false}, {"slug": "bolder-creek-campground", "campground_name": "Bolder Creek  Campground", "state": "WI", "campground_type": "Campground", "is_verified": false, "signal_score": 40, "signal_quality_score": 50, "carrier_count": 1, "remote_work_score": 39.0, "latitude": 42.9169175, "longitude": -91.1172646, "verizon_coverage": false, "att_coverage": false, "tmobile_coverage": true}, {"slug": "bonanza", "campground_name": "Bonanza", "state": "WI", "campground_type": "Campground", "is_verified": false, "signal_score": 90, "signal_quality_score": 95, "carrier_count": 3, "remote_work_score": 86.5, "latitude": 43.609991, "longitude": -89.7857892, "verizon_coverage": true, "att_coverage": true, "tmobile_coverage": true}, {"slug": "bonnell-flats", "campground_name": "Bonnell Flats", "state": "PA", "campground_type": "Campground", "is_verified": false, "signal_score": 70, "signal_quality_score": 70, "carrier_count": 2, "remote_work_score": 68.0, "latitude": 41.2779769, "longitude": -77.3195348, "verizon_coverage": true, "att_coverage": false, "tmobile_coverage": true}, {"slug": "boone", "campground_name": "Boone", "state": "WI", "campground_type": "Private", "is_verified": false, "signal_score": 10, "signal_quality_score": 10, "carrier_count": 0, "remote_work_score": 14.0, "latitude": 45.3671346, "longitude": -88.9686104, "verizon_coverage": false, "att_coverage": false, "tmobile_coverage": false}, {"slug": "boot-lake-campground", "campground_name": "Boot Lake Campground", "state": "WI", "campground_type": "National Forest", "is_verified": true, "signal_score": 10, "signal_quality_score": 10, "carrier_count": 0, "remote_work_score": 14.0, "latitude": 45.2685794, "longitude": -88.6456619, "verizon_coverage": false, "att_coverage": false, "tmobile_coverage": false}, {"slug": "boulder-canoe-2", "campground_name": "Boulder Canoe 2", "state": "WI", "campground_type": "State Park", "is_verified": true, "signal_score": 40, "signal_quality_score": 50, "carrier_count": 1, "remote_work_score": 30.5, "latitude": 46.1246277, "longitude": -89.6761198, "verizon_coverage": true, "att_coverage": false, "tmobile_coverage": false}, {"slug": "boulder-canoe-3", "campground_name": "Boulder Canoe 3", "state": "WI", "campground_type": "State Park", "is_verified": true, "signal_score": 40, "signal_quality_score": 50, "carrier_count": 1, "remote_work_score": 30.5, "latitude": 46.1247867, "longitude": -89.6825963, "verizon_coverage": true, "att_coverage": false, "tmobile_coverage": false}, {"slug": "boulder-lake-campground", "campground_name": "Boulder Lake Campground", "state": "WI", "campground_type": "Campground", "is_verified": false, "signal_score": 40, "signal_quality_score": 30, "carrier_count": 1, "remote_work_score": 35.0, "latitude": 45.1378244, "longitude": -88.6330328, "verizon_coverage": true, "att_coverage": false, "tmobile_coverage": false}, {"slug": "boulder-lake-recreation-area-campgrounds", "campground_name": "Boulder Lake Recreation Area Campgrounds", "state": "WI", "campground_type": "National Forest", "is_verified": true, "signal_score": 10, "signal_quality_score": 10, "carrier_count": 0, "remote_work_score": 14.0, "latitude": 45.1382829, "longitude": -88.632849, "verizon_coverage": false, "att_coverage": false, "tmobile_coverage": false}, {"slug": "boulder-woods-campground", "campground_name": "Boulder Woods Campground", "state": "PA", "campground_type": "Campground", "is_verified": false, "signal_score": 90, "signal_quality_score": 95, "carrier_count": 3, "remote_work_score": 85.0, "latitude": 40.3775245, "longitude": -75.4116276, "verizon_coverage": true, "att_coverage": true, "tmobile_coverage": true}, {"slug": "bowie", "campground_name": "Bowie", "state": "WI", "campground_type": "Private", "is_verified": false, "signal_score": 10, "signal_quality_score": 10, "carrier_count": 0, "remote_work_score": 14.0, "latitude": 45.3690496, "longitude": -88.9694043, "verizon_coverage": false, "att_coverage": false, "tmobile_coverage": false}, {"slug": "bowman-bridge-campground", "campground_name": "Bowman Bridge Campground", "state": "MI", "campground_type": "Campground", "is_verified": false, "signal_score": 70, "signal_quality_score": 70, "carrier_count": 2, "remote_work_score": 60.0, "latitude": 43.8888353, "longitude": -85.9436047, "verizon_coverage": false, "att_coverage": true, "tmobile_coverage": true}, {"slug": "bowman-lake-campground", "campground_name": "Bowman Lake Campground", "state": "MI", "campground_type": "National Forest", "is_verified": true, "signal_score": 70, "signal_quality_score": 70, "carrier_count": 2, "remote_work_score": 60.0, "latitude": 43.8913246, "longitude": -85.9678406, "verizon_coverage": false, "att_coverage": true, "tmobile_coverage": true}, {"slug": "boy-scout-camp", "campground_name": "Boy Scout Camp", "state": "WI", "campground_type": "Scout Camp", "is_verified": false, "signal_score": 10, "signal_quality_score": 10, "carrier_count": 0, "remote_work_score": 12.5, "latitude": 45.7609797, "longitude": -90.7728062, "verizon_coverage": false, "att_coverage": false, "tmobile_coverage": false}, {"slug": "boy-scouts-camp-barksdale", "campground_name": "Boy Scouts Camp Barksdale", "state": "WI", "campground_type": "Private", "is_verified": false, "signal_score": 90, "signal_quality_score": 95, "carrier_count": 3, "remote_work_score": 68.5, "latitude": 46.6179299, "longitude": -90.9324259, "verizon_coverage": true, "att_coverage": true, "tmobile_coverage": true}, {"slug": "boy-scouts-of-america-camp-fletcher", "campground_name": "Boy Scouts of America: Camp Fletcher", "state": "WI", "campground_type": "Scout Camp", "is_verified": false, "signal_score": 90, "signal_quality_score": 95, "carrier_count": 3, "remote_work_score": 89.5, "latitude": 44.5590362, "longitude": -89.514587, "verizon_coverage": true, "att_coverage": true, "tmobile_coverage": true}, {"slug": "boyd-s-mason-lake-resort", "campground_name": "Boyd's Mason Lake Resort", "state": "WI", "campground_type": "Private", "is_verified": false, "signal_score": 10, "signal_quality_score": 10, "carrier_count": 0, "remote_work_score": 12.5, "latitude": 45.8128829, "longitude": -90.6479357, "verizon_coverage": false, "att_coverage": false, "tmobile_coverage": false}, {"slug": "brandywine-creek-campground", "campground_name": "Brandywine Creek Campground", "state": "PA", "campground_type": "Campground", "is_verified": false, "signal_score": 90, "signal_quality_score": 90, "carrier_count": 3, "remote_work_score": 86.5, "latitude": 40.0627544, "longitude": -75.7430275, "verizon_coverage": true, "att_coverage": true, "tmobile_coverage": true}, {"slug": "brasswire-campground", "campground_name": "Brasswire Campground", "state": "MI", "campground_type": "Campground", "is_verified": false, "signal_score": 90, "signal_quality_score": 95, "carrier_count": 3, "remote_work_score": 75.5, "latitude": 46.497061, "longitude": -87.6479816, "verizon_coverage": true, "att_coverage": true, "tmobile_coverage": true}, {"slug": "bray-creek-state-forest-campground", "campground_name": "Bray Creek State Forest Campground", "state": "MI", "campground_type": "State Forest", "is_verified": true, "signal_score": 40, "signal_quality_score": 50, "carrier_count": 1, "remote_work_score": 41.0, "latitude": 43.9146782, "longitude": -85.8244322, "verizon_coverage": false, "att_coverage": false, "tmobile_coverage": true}, {"slug": "breezy-hill-campground", "campground_name": "Breezy Hill Campground", "state": "WI", "campground_type": "Campground", "is_verified": false, "signal_score": 90, "signal_quality_score": 95, "carrier_count": 3, "remote_work_score": 86.5, "latitude": 43.6944249, "longitude": -88.4091791, "verizon_coverage": true, "att_coverage": true, "tmobile_coverage": true}, {"slug": "brevoort-lake-campground", "campground_name": "Brevoort Lake Campground", "state": "MI", "campground_type": "Campground", "is_verified": false, "signal_score": 70, "signal_quality_score": 75, "carrier_count": 2, "remote_work_score": 58.0, "latitude": 46.0099115, "longitude": -84.9709511, "verizon_coverage": false, "att_coverage": true, "tmobile_coverage": true}, {"slug": "brevoort-lake-campground-mi", "campground_name": "Brevoort Lake Campground", "state": "MI", "campground_type": "Campground", "is_verified": false, "signal_score": 70, "signal_quality_score": 75, "carrier_count": 2, "remote_work_score": 58.0, "latitude": 46.0091946, "longitude": -84.9782804, "verizon_coverage": false, "att_coverage": true, "tmobile_coverage": true}, {"slug": "bridger", "campground_name": "Bridger", "state": "WI", "campground_type": "Campground", "is_verified": false, "signal_score": 10, "signal_quality_score": 10, "carrier_count": 0, "remote_work_score": 14.0, "latitude": 45.3701787, "longitude": -88.9676776, "verizon_coverage": false, "att_coverage": false, "tmobile_coverage": false}, {"slug": "brigham-county-park-campground", "campground_name": "Brigham County Park Campground", "state": "WI", "campground_type": "County Park", "is_verified": false, "signal_score": 90, "signal_quality_score": 95, "carrier_count": 3, "remote_work_score": 83.5, "latitude": 43.0275088, "longitude": -89.8155022, "verizon_coverage": true, "att_coverage": true, "tmobile_coverage": true}, {"slug": "britannia-faire", "campground_name": "Britannia Faire", "state": "OH", "campground_type": "Campground", "is_verified": false, "signal_score": 40, "signal_quality_score": 40, "carrier_count": 1, "remote_work_score": 41.0, "latitude": 39.8016429, "longitude": -81.1055761, "verizon_coverage": true, "att_coverage": false, "tmobile_coverage": false}, {"slug": "broken-bow-campground", "campground_name": "Broken Bow Campground", "state": "WI", "campground_type": "Campground", "is_verified": false, "signal_score": 40, "signal_quality_score": 40, "carrier_count": 1, "remote_work_score": 35.0, "latitude": 45.9232387, "longitude": -89.9523475, "verizon_coverage": true, "att_coverage": false, "tmobile_coverage": false}, {"slug": "brokenstraw-valley-campsites", "campground_name": "Brokenstraw Valley Campsites", "state": "PA", "campground_type": "Campground", "is_verified": false, "signal_score": 40, "signal_quality_score": 50, "carrier_count": 1, "remote_work_score": 43.0, "latitude": 41.8956382, "longitude": -79.4165893, "verizon_coverage": false, "att_coverage": true, "tmobile_coverage": false}, {"slug": "brookfest-acres", "campground_name": "Brookfest Acres", "state": "MI", "campground_type": "Campground", "is_verified": false, "signal_score": 40, "signal_quality_score": 40, "carrier_count": 1, "remote_work_score": 45.0, "latitude": 42.0770108, "longitude": -84.2435014, "verizon_coverage": true, "att_coverage": false, "tmobile_coverage": false}, {"slug": "brooklyn-trails", "campground_name": "Brooklyn Trails", "state": "MI", "campground_type": "Campground", "is_verified": false, "signal_score": 40, "signal_quality_score": 40, "carrier_count": 1, "remote_work_score": 45.0, "latitude": 42.0714158, "longitude": -84.2525611, "verizon_coverage": true, "att_coverage": false, "tmobile_coverage": false}, {"slug": "brower-park-campground", "campground_name": "Brower Park Campground", "state": "MI", "campground_type": "County Park", "is_verified": false, "signal_score": 40, "signal_quality_score": 40, "carrier_count": 1, "remote_work_score": 44.5, "latitude": 43.5613551, "longitude": -85.5488275, "verizon_coverage": true, "att_coverage": false, "tmobile_coverage": false}, {"slug": "brown-county-fairgrounds", "campground_name": "Brown County Fairgrounds", "state": "WI", "campground_type": "County Park", "is_verified": false, "signal_score": 90, "signal_quality_score": 95, "carrier_count": 3, "remote_work_score": 93.0, "latitude": 44.4608355, "longitude": -88.0696592, "verizon_coverage": true, "att_coverage": true, "tmobile_coverage": true}, {"slug": "bruce-village-park", "campground_name": "Bruce Village Park", "state": "WI", "campground_type": "Campground", "is_verified": false, "signal_score": 40, "signal_quality_score": 40, "carrier_count": 1, "remote_work_score": 39.0, "latitude": 45.4540585, "longitude": -91.2792862, "verizon_coverage": true, "att_coverage": false, "tmobile_coverage": false}, {"slug": "bruin-lake-campground", "campground_name": "Bruin Lake Campground", "state": "MI", "campground_type": "Campground", "is_verified": false, "signal_score": 10, "signal_quality_score": 10, "carrier_count": 0, "remote_work_score": 26.0, "latitude": 42.4214562, "longitude": -84.0430367, "verizon_coverage": false, "att_coverage": false, "tmobile_coverage": false}, {"slug": "brule-river-state-forest-hike-in", "campground_name": "Brule River State Forest Backcountry Camping", "state": "WI", "campground_type": "State Forest", "is_verified": true, "signal_score": 10, "signal_quality_score": 10, "carrier_count": 0, "remote_work_score": 18.0, "latitude": 46.6756644, "longitude": -91.5939524, "verizon_coverage": false, "att_coverage": false, "tmobile_coverage": false}, {"slug": "brunet-island-state-park-campground", "campground_name": "Brunet Island State Park Campground", "state": "WI", "campground_type": "State Park", "is_verified": true, "signal_score": 40, "signal_quality_score": 50, "carrier_count": 1, "remote_work_score": 45.0, "latitude": 45.1760387, "longitude": -91.1716818, "verizon_coverage": true, "att_coverage": false, "tmobile_coverage": false}, {"slug": "brush-lake-campground", "campground_name": "Brush Lake Campground", "state": "MI", "campground_type": "Campground", "is_verified": false, "signal_score": 40, "signal_quality_score": 50, "carrier_count": 1, "remote_work_score": 39.0, "latitude": 43.6394002, "longitude": -85.6898767, "verizon_coverage": true, "att_coverage": false, "tmobile_coverage": false}, {"slug": "bsa-camp-hart", "campground_name": "BSA Camp Hart", "state": "PA", "campground_type": "Campground", "is_verified": false, "signal_score": 90, "signal_quality_score": 95, "carrier_count": 3, "remote_work_score": 83.5, "latitude": 40.3643571, "longitude": -75.4258558, "verizon_coverage": true, "att_coverage": true, "tmobile_coverage": true}, {"slug": "buckaloons-campground", "campground_name": "Buckaloons Campground", "state": "PA", "campground_type": "Campground", "is_verified": false, "signal_score": 40, "signal_quality_score": 50, "carrier_count": 1, "remote_work_score": 42.0, "latitude": 41.8387531, "longitude": -79.2577535, "verizon_coverage": false, "att_coverage": true, "tmobile_coverage": false}, {"slug": "buckatabon-creek-campground", "campground_name": "Buckatabon Creek Campground", "state": "WI", "campground_type": "Campground", "is_verified": false, "signal_score": 40, "signal_quality_score": 50, "carrier_count": 1, "remote_work_score": 35.0, "latitude": 46.0260633, "longitude": -89.2913087, "verizon_coverage": true, "att_coverage": false, "tmobile_coverage": false}, {"slug": "buckhorn-primitive-camping-area", "campground_name": "Buckhorn Primitive Camping Area", "state": "PA", "campground_type": "National Park", "is_verified": true, "signal_score": 90, "signal_quality_score": 90, "carrier_count": 3, "remote_work_score": 74.0, "latitude": 41.4231647, "longitude": -74.7982797, "verizon_coverage": true, "att_coverage": true, "tmobile_coverage": true}, {"slug": "buckhorn-state-park-campground", "campground_name": "Buckhorn State Park Campground", "state": "WI", "campground_type": "State Park", "is_verified": true, "signal_score": 10, "signal_quality_score": 10, "carrier_count": 0, "remote_work_score": 22.0, "latitude": 43.9407539, "longitude": -90.0168495, "verizon_coverage": false, "att_coverage": false, "tmobile_coverage": false}, {"slug": "buffalo-lake-campground", "campground_name": "Buffalo Lake Campground", "state": "WI", "campground_type": "State Forest", "is_verified": true, "signal_score": 10, "signal_quality_score": 10, "carrier_count": 0, "remote_work_score": 14.0, "latitude": 45.8775729, "longitude": -89.5633228, "verizon_coverage": false, "att_coverage": false, "tmobile_coverage": false}, {"slug": "buffalo-lake-camping-resort", "campground_name": "Buffalo Lake Camping Resort", "state": "WI", "campground_type": "Private", "is_verified": false, "signal_score": 10, "signal_quality_score": 10, "carrier_count": 0, "remote_work_score": 26.0, "latitude": 43.7933529, "longitude": -89.3441144, "verizon_coverage": false, "att_coverage": false, "tmobile_coverage": false}, {"slug": "burned-dam-campground", "campground_name": "Burned Dam Campground", "state": "WI", "campground_type": "Campground", "is_verified": false, "signal_score": 90, "signal_quality_score": 90, "carrier_count": 3, "remote_work_score": 65.5, "latitude": 46.3127515, "longitude": -89.0522738, "verizon_coverage": true, "att_coverage": true, "tmobile_coverage": true}, {"slug": "burning-heart-campground", "campground_name": "Burning Heart Campground", "state": "OH", "campground_type": "Campground", "is_verified": false, "signal_score": 40, "signal_quality_score": 40, "carrier_count": 1, "remote_work_score": 39.0, "latitude": 38.7429866, "longitude": -83.6203206, "verizon_coverage": true, "att_coverage": false, "tmobile_coverage": false}, {"slug": "burnt-cabins-grist-mill-campground", "campground_name": "Burnt Cabins Grist Mill & Campground", "state": "PA", "campground_type": "Campground", "is_verified": false, "signal_score": 90, "signal_quality_score": 95, "carrier_count": 3, "remote_work_score": 85.0, "latitude": 40.0767103, "longitude": -77.887378, "verizon_coverage": true, "att_coverage": true, "tmobile_coverage": true}, {"slug": "burnt-ridge-campground", "campground_name": "Burnt Ridge Campground", "state": "PA", "campground_type": "Campground", "is_verified": false, "signal_score": 40, "signal_quality_score": 50, "carrier_count": 1, "remote_work_score": 47.0, "latitude": 40.8836745, "longitude": -79.6147378, "verizon_coverage": false, "att_coverage": true, "tmobile_coverage": false}, {"slug": "burr-oak-cove-campground", "campground_name": "Burr Oak Cove Campground", "state": "OH", "campground_type": "Campground", "is_verified": false, "signal_score": 10, "signal_quality_score": 10, "carrier_count": 0, "remote_work_score": 24.0, "latitude": 39.5502793, "longitude": -82.0590881, "verizon_coverage": false, "att_coverage": false, "tmobile_coverage": false}, {"slug": "burr-oak-equestrian-camp", "campground_name": "Burr Oak Equestrian Camp", "state": "OH", "campground_type": "Campground", "is_verified": false, "signal_score": 10, "signal_quality_score": 10, "carrier_count": 0, "remote_work_score": 24.0, "latitude": 39.5444099, "longitude": -82.0401925, "verizon_coverage": false, "att_coverage": false, "tmobile_coverage": false}, {"slug": "burr-oak-state-park", "campground_name": "Burr Oak State Park", "state": "OH", "campground_type": "State Park", "is_verified": true, "signal_score": 10, "signal_quality_score": 10, "carrier_count": 0, "remote_work_score": 24.0, "latitude": 39.5436678, "longitude": -82.0325076, "verizon_coverage": false, "att_coverage": false, "tmobile_coverage": false}, {"slug": "burr-oak-state-park-campground", "campground_name": "Burr Oak State Park Campground", "state": "OH", "campground_type": "State Park", "is_verified": true, "signal_score": 10, "signal_quality_score": 10, "carrier_count": 0, "remote_work_score": 24.0, "latitude": 39.5377153, "longitude": -82.03347, "verizon_coverage": false, "att_coverage": false, "tmobile_coverage": false}, {"slug": "burr-oak-state-park-group-camp", "campground_name": "Burr Oak State Park Group Camp", "state": "OH", "campground_type": "State Park", "is_verified": true, "signal_score": 10, "signal_quality_score": 10, "carrier_count": 0, "remote_work_score": 24.0, "latitude": 39.5470085, "longitude": -82.0267163, "verizon_coverage": false, "att_coverage": false, "tmobile_coverage": false},